"시설명","시도명","시군구명","시군구코드","소재지도로명주소","소재지지번주소","위도","경도","설치장소설명","평일운영시작시각","평일운영종료시각","토요일운영시작시각","토요일운영종료시각","공휴일운영시작시각","공휴일운영종료시각","동시사용가능대수","공기주입가능여부","휴대전화충전가능여부","관리기관명","관리기관전화번호","데이터기준일자","제공기관코드","작업일시"
"용산행복장애인자립생활센터","서울특별시","용산구","11170","서울특별시 용산구 원효로89길 31","","37.54074494","126.9673582","센터 1층","09:00","18:00","00:00","00:00","00:00","00:00","2","Y","Y","용산행복장애인자립생활센터","02-704-0420","2021-09-15","3020000","2022-02-14 14:37:28.0"
"영등포구","서울특별시","영등포구","11560","서울특별시 영등포구 경인로114가길 9","서울특별시 영등포구 영등포동1가 35","37.51770759","126.9151695","신길역 환승엘리베이터 앞","06:00","22:00","06:00","22:00","06:00","22:00","2","Y","Y","서울특별시 영등포구","02-2639-3553","2021-04-14","3180000","2022-02-14 14:37:28.0"
"영등포구","서울특별시","영등포구","11560","서울특별시 영등포구 도림로 137","서울특별시 영등포구 대림동 1050-17","37.4928304132","126.8969595492","대림역 b1층 화장실 옆","06:00","22:00","06:00","22:00","06:00","22:00","2","Y","Y","서울특별시 영등포구","02-6311-7441","2021-04-14","3180000","2022-02-14 14:37:28.0"
"영등포구","서울특별시","영등포구","11560","서울특별시 영등포구 경인로 846","서울특별시 영등포구 영등포동 618-496","37.51566803","126.907666","영등포역 기차역 인포메이션 옆","06:00","22:00","06:00","22:00","06:00","22:00","2","Y","Y","서울특별시 영등포구","02-1544-7788","2021-04-14","3180000","2022-02-14 14:37:28.0"
"삼각지역","서울특별시","용산구","11170","서울특별시 용산구 한강대로 180","","37.5344034","126.9733574","지하1층 나 대합실 옆","06:00","23:30","06:00","23:30","06:00","23:30","2","N","Y","삼각지역","02-6110-4281","2021-09-15","3020000","2022-02-14 14:37:28.0"
"숙대입구역","서울특별시","용산구","11170","서울특별시 용산구 한강대로 306","","37.54549626","126.9722388","지하1층 대합실 만남의장소","06:00","23:30","06:00","23:30","06:00","23:30","2","N","Y","숙대입구역","02-6110-4271","2021-09-15","3020000","2022-02-14 14:37:28.0"
"한벗장애인주간보호시설","서울특별시","용산구","11170","서울특별시 용산구 효창원로69길 24-3","","37.5427916","126.9579499","시설 2층","09:00","18:00","00:00","00:00","00:00","00:00","2","Y","Y","한벗장애인주간보호시설","02-713-5050","2021-09-15","3020000","2022-02-14 14:37:28.0"
"영등포구","서울특별시","영등포구","11560","서울특별시 영등포구 도신로27","서울특별시 영등포구 대림동 608-2","37.504318","126.8960774463","대림정보문화도서관 1층 로비","09:00","18:00","09:00","17:00","00:00","00:00","2","Y","Y","서울특별시 영등포구","02-828-3702","2021-04-14","3180000","2022-02-14 14:37:28.0"
"영등포구","서울특별시","영등포구","11560","서울특별시 영등포구 문래로20길 49","서울특별시 영등포구 문래동3가 98","37.51680639","126.8908945524","문래정보문화도서관 1층 로비","09:00","18:00","09:00","17:00","00:00","00:00","2","Y","Y","서울특별시 영등포구","02-2629-8605","2021-04-14","3180000","2022-02-14 14:37:28.0"
"영등포구","서울특별시","영등포구","11560","서울특별시 영등포구 선유로 43가길 10-8","서울특별시 영등포구 양평동3가 88-1","37.533331","126.892916","선유정보문화도서관 1층 로비","09:00","18:00","09:00","17:00","00:00","00:00","2","Y","Y","서울특별시 영등포구","02-2163-0800","2021-04-14","3180000","2022-02-14 14:37:28.0"
"영등포구","서울특별시","영등포구","11560","서울특별시 영등포구 여의대로 24","서울특별시 영등포구 여의도동 28-1","37.52216363","126.9199165508","여의도디지털도서관 1층 로비","09:00","18:00","09:00","17:00","00:00","00:00","2","Y","Y","서울특별시 영등포구","02-2629-2222","2021-04-14","3180000","2022-02-14 14:37:28.0"
"영등포구","서울특별시","영등포구","11560","서울특별시 영등포구 버드나루로 22","서울특별시 영등포구 영등포동2가 94-379","37.5208582747","126.9129017429","영등포장애인복지관 1층 로비","09:00","18:00","00:00","00:00","00:00","00:00","2","Y","Y","서울특별시 영등포구","02-3667-7979","2021-04-14","3180000","2022-02-14 14:37:28.0"
"영등포구","서울특별시","영등포구","11560","서울특별시 영등포구 도림로 482","서울특별시 영등포구 문래동3가 76-2","37.5168563355","126.8905583","영등포노인종합복지관 1층 로비","09:00","18:00","00:00","00:00","00:00","00:00","2","Y","Y","서울특별시 영등포구","02-2068-0075","2021-04-14","3180000","2022-02-14 14:37:28.0"
"영등포구","서울특별시","영등포구","11560","서울특별시 영등포구 당산로41가길 7","서울특별시 영등포구 당산동4가 80-5","37.5310115134","126.897349","당산2동주민센터 입구 안쪽","09:00","18:00","00:00","00:00","00:00","00:00","2","Y","Y","서울특별시 영등포구","02-2670-7233","2021-04-14","3180000","2022-02-14 14:37:28.0"
"영등포구","서울특별시","영등포구","11560","서울특별시 영등포구 도영로7길 10","서울특별시 영등포구 도림동 222-7","37.5094933996","126.8959995828","도림동주민센터 입구 안쪽","09:00","18:00","00:00","00:00","00:00","00:00","2","Y","Y","서울특별시 영등포구","02-2670-7287","2021-04-14","3180000","2022-02-14 14:37:28.0"
"영등포구","서울특별시","영등포구","11560","서울특별시 영등포구 문래로28길 15","서울특별시 영등포구 문래동3가 55-16","37.5171097508","126.8995233041","문래동주민센터 입구 안쪽","09:00","18:00","00:00","00:00","00:00","00:00","2","Y","Y","서울특별시 영등포구","02-2670-7338","2021-04-14","3180000","2022-02-14 14:37:28.0"
"영등포구","서울특별시","영등포구","11560","서울특별시 영등포구 디지털로 441","서울특별시 영등포구 대림동 899-2","37.49545723","126.905842","대림1동주민센터 입구 안쪽","09:00","18:00","00:00","00:00","00:00","00:00","2","Y","Y","서울특별시 영등포구","02-2670-7884","2021-04-14","3180000","2022-02-14 14:37:28.0"
"영등포구","서울특별시","영등포구","11560","서울특별시 영등포구 영등포로11길 12","서울특별시 영등포구 양평동1가 211-1","37.523646","126.888228","양평1동주민센터 입구 안쪽","09:00","18:00","00:00","00:00","00:00","00:00","2","Y","Y","서울특별시 영등포구","02-3457-7383","2021-04-14","3180000","2022-02-14 14:37:28.0"
"영등포구","서울특별시","영등포구","11560","서울특별시 영등포구 선유로47길 30","서울특별시 영등포구 양평동4가 96","37.5365013611","126.8940394192","양평2동주민센터  입구 안쪽","09:00","18:00","00:00","00:00","00:00","00:00","2","Y","Y","서울특별시 영등포구","02-3457-1226","2021-04-14","3180000","2022-02-14 14:37:28.0"
"영등포구","서울특별시","영등포구","11560","서울특별시 영등포구 대방천로 169","서울특별시 영등포구 신길동 3741-11","37.499333","126.909836","신길6동주민센터 입구 안쪽","09:00","18:00","00:00","00:00","00:00","00:00","2","Y","Y","서울특별시 영등포구","02-2670-7785","2021-04-14","3180000","2022-02-14 14:37:28.0"
"영등포구","서울특별시","영등포구","11560","서울특별시 영등포구 여의대방로43길 10","서울특별시 영등포구 신길동 897-3","37.5063920279","126.9215140942","신길7동주민센터입구 안쪽","09:00","18:00","00:00","00:00","00:00","00:00","2","Y","Y","서울특별시 영등포구","02-3457-1373","2021-04-14","3180000","2022-02-14 14:37:28.0"
"홍제3동주민센터","서울특별시","서대문구","11410","서울특별시 서대문구 세검정로4길 32","서울특별시 서대문구 홍제동 7-13","37.59376657","126.9496911","홍제3동주민센터","09:00","18:00","00:00","00:00","00:00","00:00","2","N","N","홍제3동주민센터","02-330-8125","2020-01-01","3120000","2022-02-14 14:37:28.0"
"홍은1동주민센터","서울특별시","서대문구","11410","서울특별시 서대문구 홍은중앙로 85","서울특별시 서대문구 홍은동 11-853","37.59885299","126.9471453","홍은1동주민센터","09:00","18:00","00:00","00:00","00:00","00:00","2","N","N","홍은1동주민센터","02-330-8129","2020-01-01","3120000","2022-02-14 14:37:28.0"
"홍은2동주민센터","서울특별시","서대문구","11410","서울특별시 서대문구 모래내로 334","서울특별시 서대문구 홍은동 273-10","37.58010825","126.9341504","홍은2동주민센터","09:00","18:00","00:00","00:00","00:00","00:00","2","N","N","홍은2동주민센터","02-330-8134","2020-01-01","3120000","2022-02-14 14:37:28.0"
"남가좌1동주민센터","서울특별시","서대문구","11410","서울특별시 서대문구 모래내로 15길 37","서울특별시 서대문구 남가좌동 385-3","37.57327487","126.9197797","남가좌1동주민센터","09:00","18:00","00:00","00:00","00:00","00:00","2","N","N","남가좌1동주민센터","02-330-8135","2020-01-01","3120000","2022-02-14 14:37:28.0"
"남가좌2동주민센터","서울특별시","서대문구","11410","서울특별시 서대문구 증가로10길 28","서울특별시 서대문구 남가좌동 342-7","37.57843406","126.9238669","남가좌2동주민센터","09:00","18:00","00:00","00:00","00:00","00:00","2","N","N","남가좌2동주민센터","02-330-8137","2020-01-01","3120000","2022-02-14 14:37:28.0"
"북가좌1동주민센터","서울특별시","서대문구","11410","서울특별시 서대문구 수색로 100-55(북가좌동)","서울특별시 서대문구 북가좌동 477","37.57436849","126.9101369","북가좌1동주민센터","09:00","18:00","00:00","00:00","00:00","00:00","2","N","N","북가좌1동주민센터","02-330-8139","2020-01-01","3120000","2022-02-14 14:37:28.0"
"북가좌2동주민센터","서울특별시","서대문구","11410","서울특별시 서대문구 응암로1길 10(북가좌동)","서울특별시 서대문구 북가좌동 324-13","37.58149091","126.9111755","북가좌2동주민센터","09:00","18:00","00:00","00:00","00:00","00:00","2","N","N","북가좌2동주민센터","02-330-8141","2020-01-01","3120000","2022-02-14 14:37:28.0"
"무악재역","서울특별시","서대문구","11410","서울특별시 서대문구 통일로 358-1","서울특별시 서대문구 홍제동 26-1","37.5824248","126.9505791","무악재역","06:00","00:00","06:00","00:00","00:00","00:00","2","N","N","무악재역","02-6110-3251","2020-01-01","3120000","2022-02-14 14:37:28.0"
"충정로역","서울특별시","서대문구","11410","서울특별시 서대문구 서소문로 17","서울특별시 서대문구 충정로3가 319-1","37.5598378","126.964474","충정로역","06:00","00:00","06:00","00:00","00:00","00:00","2","N","N","충정로역","02-6110-2431","2020-01-01","3120000","2022-02-14 14:37:28.0"
"이대역","서울특별시","마포구","11440","서울특별시 마포구 신촌로 180","서울특별시 마포구 염리동 8-85","37.5565093","126.9454858","이대역","06:00","00:00","06:00","00:00","00:00","00:00","2","N","N","이대역","02-6110-2411","2020-01-01","3120000","2022-02-14 14:37:28.0"
"아현역","서울특별시","마포구","11440","서울특별시 마포구 신촌로 270","서울특별시 마포구 아현동 354-23","37.5571213","126.9557107","아현역","06:00","00:00","06:00","00:00","00:00","00:00","2","N","N","아현역","02-6110-2421","2020-01-01","3120000","2022-02-14 14:37:28.0"
"독립문역","서울특별시","서대문구","11410","서울특별시 서대문구 통일로 247","서울특별시 서대문구 현저동 101","37.57610554","126.9554446","독립문역","06:00","00:00","06:00","00:00","00:00","00:00","2","N","N","독립문역","02-6110-3261","2020-01-01","3120000","2022-02-14 14:37:28.0"
"보건소","서울특별시","서대문구","11410","서울특별시 서대문구 연희로 242","서울특별시 서대문구 연희동 165-2","37.5786098","126.9362749","보건소","09:00","18:00","00:00","00:00","00:00","00:00","2","N","N","보건소","02-330-1801","2020-01-01","3120000","2022-02-14 14:37:28.0"
"형무소1","서울특별시","서대문구","11410","서울특별시 서대문구 통일로 251","서울특별시 서대문구 현저동 101","37.57460851","126.9556118","형무소1","09:00","18:00","00:00","00:00","00:00","00:00","2","N","N","형무소1","02-3140-8305","2020-01-01","3120000","2022-02-14 14:37:28.0"
"형무소2","서울특별시","서대문구","11410","서울특별시 서대문구 통일로 251","서울특별시 서대문구 현저동 101","37.57460851","126.9556118","형무소2","09:00","18:00","00:00","00:00","00:00","00:00","2","N","N","형무소2","02-3140-8305","2020-01-01","3120000","2022-02-14 14:37:28.0"
"충현동자치회관","서울특별시","서대문구","11410","서울특별시 서대문구 경기대로 40","서울특별시 서대문구 충정로3가 185-2","37.56293297","126.9623757","충현동자치회관","09:00","18:00","00:00","00:00","00:00","00:00","2","N","N","충현동자치회관","02-330-8101","2020-01-01","3120000","2022-02-14 14:37:28.0"
"충현동주민센터","서울특별시","서대문구","11410","서울특별시 서대문구 북아현로22길 38","서울특별시 서대문구 북아현동 1-90","37.56480697","126.9547199","충현동주민센터","09:00","18:00","00:00","00:00","00:00","00:00","2","N","N","충현동주민센터","02-330-8101","2020-01-01","3120000","2022-02-14 14:37:28.0"
"신촌동주민센터","서울특별시","서대문구","11410","서울특별시 서대문구 이화여대길 92-8","서울특별시 서대문구 대현동 142-4","37.55954878","126.9435048","신촌동주민센터","09:00","18:00","00:00","00:00","00:00","00:00","2","N","N","신촌동주민센터","02-330-8111","2020-01-01","3120000","2022-02-14 14:37:28.0"
"연희동주민센터","서울특별시","서대문구","11410","서울특별시 서대문구 연희로 189","서울특별시 서대문구 연희동 77-9","37.57388703","126.9352207","연희동주민센터","09:00","18:00","00:00","00:00","00:00","00:00","2","N","N","연희동주민센터","02-330-8115","2020-01-01","3120000","2022-02-14 14:37:28.0"
"홍제1동주민센터","서울특별시","서대문구","11410","서울특별시 서대문구 통일로 435-1","서울특별시 서대문구 홍제1동 171-1","37.58770606","126.9448892","홍제1동주민센터","09:00","18:00","00:00","00:00","00:00","00:00","2","N","N","홍제1동주민센터","02-330-8121","2020-01-01","3120000","2022-02-14 14:37:28.0"
"홍제2동주민센터","서울특별시","서대문구","11410","서울특별시 서대문구 통일로34길 27","서울특별시 서대문구 홍제동 459-4","37.58610547","126.9493691","홍제2동주민센터","09:00","18:00","00:00","00:00","00:00","00:00","2","N","N","홍제2동주민센터","02-330-8127","2020-01-01","3120000","2022-02-14 14:37:28.0"
"서대문장애인종합복지관","서울특별시","서대문구","11410","서울특별시 서대문구 북아현로 24","서울특별시 서대문구 북아현동 129-37","37.55947096","126.9570364","서대문장애인종합복지관","09:00","20:00","09:00","17:00","00:00","00:00","2","N","N","서대문장애인종합복지관","02-3140-3000","2020-01-01","3120000","2022-02-14 14:37:28.0"
"시립서대문농아인복지관","서울특별시","서대문구","11410","서울특별시 서대문구 수색로4가길 23","서울특별시 서대문구 남가좌동 270-1","37.57069615","126.9138002","시립서대문농아인복지관","09:00","19:00","00:00","00:00","00:00","00:00","2","N","N","시립서대문농아인복지관","02-3156-6699","2020-01-01","3120000","2022-02-14 14:37:28.0"
"지체장애인협회","서울특별시","서대문구","11410","서울특별시 서대문구 세검정로 78-19","서울특별시 서대문구 홍제동 279-30","37.59518733","126.9490245","지체장애인협회","09:00","18:00","00:00","00:00","00:00","00:00","2","N","N","지체장애인협회","02-379-0168","2020-01-01","3120000","2022-02-14 14:37:28.0"
"구립용산장애인복지관","서울특별시","용산구","11170","서울특별시 용산구 효창원로93길 49","","37.54730608","126.9615705","구립용산장애인복지관","09:00","20:00","09:00","16:00","00:00","00:00","1","Y","N","구립용산장애인복지관","02-707-1970","2021-09-15","3020000","2022-02-14 14:37:28.0"
"용산구청","서울특별시","용산구","11170","서울특별시 용산구 녹사평대로 150","","37.53245265","126.9904783","용산구청 2층 민원실","09:00","18:00","00:00","00:00","00:00","00:00","2","Y","N","서울특별시 용산구청","02-2199-7100","2021-09-15","3020000","2022-02-14 14:37:28.0"
"용산구 장애인 커뮤니티센터","서울특별시","용산구","11170","서울특별시 용산구 서빙고로 245","","37.52049821","126.9911132","센터 1층","09:00","18:00","00:00","00:00","00:00","00:00","2","N","Y","서울특별시 용산구청","02-2199-7100","2021-09-15","3020000","2022-02-14 14:37:28.0"
"국립중앙박물관","서울특별시","용산구","11170","서울특별시 용산구 서빙고로 137","","37.52470233","126.9777412","1층 상설전시관 물품보관소 옆","10:00","18:00","10:00","18:00","10:00","18:00","2","N","Y","국립중앙박물관","02-2077-9000","2021-09-15","3020000","2022-02-14 14:37:28.0"
"한강로동 주민센터","서울특별시","용산구","11170","서울특별시 용산구 한강대로38길 28","","37.52814224","126.9692281","한강로동 주민센터 1층","09:00","18:00","00:00","00:00","00:00","00:00","2","N","Y","한강로동주민센터","02-2199-8560","2021-09-15","3020000","2022-02-14 14:37:28.0"
"서울역","서울특별시","용산구","11170","서울특별시 용산구 한강대로 405","","37.55483769","126.9717341","2층 맞이방","06:00","23:30","06:00","23:30","06:00","23:30","2","N","Y","서울역","1544-7788","2021-09-15","3020000","2022-02-14 14:37:28.0"
"서울특별시 용산역","서울특별시","용산구","11170","서울특별시 용산구 한강대로 23길 55","","37.5297736","126.9647427","3층 1호선 출구","06:00","23:30","06:00","23:30","06:00","23:30","2","N","Y","용산역","1544-7788","2021-09-15","3020000","2022-02-14 14:37:28.0"
"남영역","서울특별시","용산구","11170","서울특별시 용산구 한강대로 77길 25","","37.54056577","126.9713321","1층 남영역 맞이방","06:00","23:30","06:00","23:30","06:00","23:30","2","N","Y","남영역","1544-7788","2021-09-15","3020000","2022-02-14 14:37:28.0"
"효창공원앞역(경의중앙선)","서울특별시","용산구","11170","서울특별시 용산구 백범로 지하 287","","37.53933395","126.9613166","지하 1층 효창공원역 맞이방","06:00","23:30","06:00","23:30","06:00","23:30","2","N","Y","효창공원역","02-2199-7100","2021-09-15","3020000","2022-02-14 14:37:28.0"
"이촌역(경의중앙선)","서울특별시","용산구","11170","서울특별시 용산구 서빙고 83","","37.5224803","126.9716268","지하 1층 이촌역 맞이방","06:00","23:30","06:00","23:30","06:00","23:30","2","N","Y","이촌역","1544-7788","2021-09-15","3020000","2022-02-14 14:37:28.0"
"서빙고역","서울특별시","용산구","11170","서울특별시 용산구 서빙고로 238","","37.51995392","126.9900486","2층 서빙고역 맞이방 통로","06:00","23:30","06:00","23:30","06:00","23:30","2","N","Y","서빙고역","1544-7788","2021-09-15","3020000","2022-02-14 14:37:28.0"
"한남역","서울특별시","용산구","11170","서울특별시 용산구 독서당로6길 12-13","","37.52918752","127.0082497","1층 한남역 맞이방","06:00","23:30","06:00","23:30","06:00","23:30","2","N","Y","한남역","1544-7788","2021-09-15","3020000","2022-02-14 14:37:28.0"
"성북장애인복지관","서울특별시","성북구","11290","서울특별시 성북구 화랑로130","서울특별시 성북구 하월곡동 11-11","37.6045987070","127.0457199398","복지관 (지하1층 1층 입구 4층)","09:00","18:00","00:00","00:00","00:00","00:00","4","N","Y","성북장애인복지관","02-915-9200","2021-09-09","3070000","2022-02-14 14:37:28.0"
"성북구청","서울특별시","성북구","11291","서울특별시 성북구 보문로 168","서울특별시 성북구 삼선동5가 411","37.5894562819","127.0168495535","1층 입구","09:00","18:00","00:00","00:00","00:00","00:00","2","N","Y","성북구청","02-2241-2517","2021-09-09","3070000","2022-02-14 14:37:28.0"
"종암경찰서","서울특별시","성북구","11292","서울특별시 성북구 종암로 135","서울특별시 성북구 종암동 3-1260","37.6023479892","127.0322085100","1층 입구","09:00","18:00","00:00","00:00","00:00","00:00","2","N","Y","종암경찰서","182","2021-09-09","3070000","2022-02-14 14:37:28.0"
"한성대역","서울특별시","성북구","11293","서울특별시 성북구 삼선교로 1","서울특별시 성북구 삼선동1가 14","37.5883948842","127.0059503334","B1 고객안내센터 앞","06:30","23:00","06:30","23:00","06:30","23:00","2","N","Y","한성대역","02-6110-4191","2021-09-09","3070000","2022-02-14 14:37:28.0"
"보문역","서울특별시","성북구","11294","서울특별시 성북구 보문로 116","서울특별시 성북구 보문동1가 127-1","37.5855493513","127.0194892776","B2 6호선 대합실)","06:30","23:00","06:30","23:00","06:30","23:00","2","N","Y","보문역","02-6311-6381","2021-09-09","3070000","2022-02-14 14:37:28.0"
"돌곶이역","서울특별시","성북구","11295","서울특별시 성북구 화랑로 243","서울특별시 성북구 장위동 349-8","","","B1 편의점 옆)","06:30","23:00","06:30","23:00","06:30","23:00","2","N","Y","돌곶이역","02-6311-6431","2021-09-09","3070000","2022-02-14 14:37:28.0"
"월곡역","서울특별시","성북구","11296","서울특별시 성북구 장월로 1길 91","서울특별시 성북구 하월곡동 35-1","37.6048926131","127.0438114343","B2 승강기 앞)","06:30","23:00","06:30","23:00","06:30","23:00","2","N","Y","월곡역","02-6311-6411","2021-09-09","3070000","2022-02-14 14:37:28.0"
"성북장애인자립생활센터","서울특별시","성북구","11297","서울특별시 성북구 보문로 134","서울특별시 성북구 보문동1가 37","37.5869754658","127.0187924341","2층","09:00","18:00","00:00","00:00","00:00","00:00","2","N","Y","성북장애인자립생활센터","02-921-7232","2021-09-09","3070000","2022-02-14 14:37:28.0"
"성북장애인보장구수리센터","서울특별시","성북구","11298","서울특별시 성북구 보문로 133","서울특별시 성북구 보문동2가 41","37.5867552293","127.0184353937","1층 입구","09:00","18:00","00:00","00:00","00:00","00:00","2","N","Y","성북장애인보장구수리센터","02-921-7230","2021-09-09","3070000","2022-02-14 14:37:28.0"
"월곡종합사회복지관","서울특별시","성북구","11299","서울특별시 성북구 오패산로 16길 23","서울특별시 성북구 하월곡동 222-5","37.6089104944","127.0375128873","1층 입구","09:00","18:00","00:00","00:00","00:00","00:00","2","N","Y","월곡종합사회복지관","02-911-5511","2021-09-09","3070000","2022-02-14 14:37:28.0"
"성북구지체장애인협회","서울특별시","성북구","11300","서울특별시 성북구 화랑로 13가길 100","서울특별시 성북구 하월곡동 산2-1","37.6106462838","127.0404131369","1층 입구","09:00","18:00","00:00","00:00","00:00","00:00","2","N","Y","성북구지체장애인협회","02-914-2070","2021-09-09","3070000","2022-02-14 14:37:28.0"
"길음종합사회복지관","서울특별시","성북구","11301","서울특별시 성북구 삼양로 8가길 32","서울특별시 성북구 길음동 1061","37.6088146559","127.0247800128","1층 입구","09:00","18:00","00:00","00:00","00:00","00:00","2","N","Y","길음종합사회복지관","02-985-0161","2021-09-09","3070000","2022-02-14 14:37:28.0"
"성북구장애인단체연합회","서울특별시","성북구","11302","서울특별시 성북구 오패산로3길 95","서울특별시 성북구 하월곡동 96-76","37.6072558287","127.0339359041","1층 입구","09:00","18:00","00:00","00:00","00:00","00:00","2","N","Y","성북구장애인단체연합회","02-912-5990","2021-09-09","3070000","2022-02-14 14:37:28.0"
"디에스케어","서울특별시","노원구","11350","서울특별시 노원구 덕릉로115다길 40","서울특별시 노원구 상계동 1321","37.668622","127.0782058","디에스케어(전동보장구 수리업체)","09:00","18:00","00:00","00:00","00:00","00:00","2","Y","Y","서울특별시 노원구","02-2116-3329","2021-09-13","3100000","2022-02-14 14:37:28.0"
"장애인복지과 입구","서울특별시","노원구","11350","서울특별시 노원구 노해로 437","서울특별시 노원구 상계동 701-1","37.65451904","127.0562972","노원구청 1층 장애인복지과 입구","09:00","18:00","09:00","18:00","00:00","00:00","2","N","N","서울특별시 노원구","02-2116-3329","2021-09-13","3100000","2022-02-14 14:37:28.0"
"한국뇌성마비장애인협회 청우","서울특별시","노원구","11350","서울특별시 노원구 덕릉로 805","서울특별시 노원구 상계동 110-9","37.6688613","127.079759","상계뉴타운 프라자 한국뇌성마비장애인협회 청우","09:00","18:00","00:00","00:00","00:00","00:00","2","Y","Y","서울특별시 노원구","02-2116-3329","2021-09-13","3100000","2022-02-14 14:37:28.0"
"노원장애인 자립생활센터 어울림","서울특별시","노원구","11350","서울특별시 노원구 상계로5길 12","서울특별시 노원구 상계동 1305","37.6573526","127.064261","동양메이저 상가 노원장애인 자립생활센터 어울림","09:00","18:00","00:00","00:00","00:00","00:00","2","N","N","서울특별시 노원구","02-2116-3329","2021-09-13","3100000","2022-02-14 14:37:28.0"
"노원중증장애인 독립생활센터","서울특별시","노원구","11350","서울특별시 한글비석로15길 48 현대종합상사","서울특별시 노원구 중계동 434-2 현대종합상가","37.656252","127.071319","현대종합상가 6층 노원중증장애인 독립생활센터","09:00","18:00","00:00","00:00","00:00","00:00","2","N","N","서울특별시 노원구","02-2116-3329","2021-09-13","3100000","2022-02-14 14:37:28.0"
"뇌성마비복지관","서울특별시","노원구","11350","서울특별시 노원구 덕릉로70가길 96","서울특별시 노원구 상계동 771","37.6424435","127.0565811","서울특별시립 뇌성마비복지관","09:00","18:00","00:00","00:00","00:00","00:00","2","N","N","서울특별시 노원구","02-2116-3329","2021-09-13","3100000","2022-02-14 14:37:28.0"
"북부장애인종합복지관","서울특별시","노원구","11350","서울특별시 노원구 덕릉로70가길 92","서울특별시 노원구 상계동 771","37.642537","127.0569697","서울특별시립 북부장애인종합복지관(4대)","09:00","18:00","00:00","00:00","00:00","00:00","2","Y","Y","서울특별시 노원구","02-2116-3329","2021-09-13","3100000","2022-02-14 14:37:28.0"
"성민복지관","서울특별시","노원구","11350","서울특별시 노원구 노원로32길 30-3","서울특별시 노원구 상계동 321-9 성민복지관","37.6556883","127.069355","성민복지관(2대)","09:00","18:00","00:00","00:00","00:00","00:00","2","Y","Y","서울특별시 노원구","02-2116-3329","2021-09-13","3100000","2022-02-14 14:37:28.0"
"지체장애인협회노원구지회","서울특별시","노원구","11350","서울특별시 노원구 월계로 370","서울특별시 노원구 월계동 321-2 희성프라자","37.6309771","127.061026","희성프라자 613호 지체장애인협회노원구지회","09:00","18:00","00:00","00:00","00:00","00:00","2","Y","N","서울특별시 노원구","02-2116-3329","2021-09-13","3100000","2022-02-14 14:37:28.0"
"장애인지원센터 디딤돌","서울특별시","노원구","11350","서울특별시 노원구 상계로5길 32","서울특별시 노원구 상계동 357-2","37.65711525","127.0628425","금호프라자 1층(노원역 근처)","09:00","18:00","00:00","00:00","00:00","00:00","2","Y","N","서울특별시 노원구","02-2116-3329","2021-09-13","3100000","2022-02-14 14:37:28.0"
"7호선 중계역","서울특별시","노원구","11350","서울특별시 노원구 동일로 지하 1308-1","서울특별시 노원구 중계동 503-3","37.6448902","127.064246","중계역(지하2층 비상게이트 맞은편)","09:00","22:00","09:00","22:00","09:00","22:00","2","Y","N","서울특별시 노원구","02-2116-3329","2021-09-13","3100000","2022-02-14 14:37:28.0"
"7호선 하계역","서울특별시","노원구","11350","서울특별시 노원구 동일로 지하 1196","서울특별시 노원구 하계동 273-5","37.6364513","127.067987","하계역(지하1층-승강장 엘리베이터 앞)","09:00","22:00","09:00","22:00","09:00","22:00","2","Y","N","서울특별시 노원구","02-2116-3329","2021-09-13","3100000","2022-02-14 14:37:28.0"
"7호선 노원역","서울특별시","노원구","11350","서울특별시 노원구 상계로 69-1 지하","서울특별시 노원구 상계동 602-5","37.6562685","127.0626376","노원역(지하1층 4번출구 왼쪽)","09:00","22:00","09:00","22:00","09:00","22:00","2","Y","N","서울특별시 노원구","02-2116-3329","2021-09-13","3100000","2022-02-14 14:37:28.0"
"노원구민의 전당","서울특별시","노원구","11350","서울특별시 노원구 동일로 1229","서울특별시 노원구 중계동 507-3","37.6389606","127.066344","노원구민의 전당(노원서비스공단)","09:00","22:00","09:00","22:00","09:00","22:00","2","Y","N","서울특별시 노원구","02-2116-3329","2021-09-13","3100000","2022-02-14 14:37:28.0"
"경춘선숲길 방문자센터","서울특별시","노원구","11350","서울특별시 노원구 공릉동 706","서울특별시 노원구 공릉동 706","37.631323","127.070091","경춘선숲길 방문자센터 옆","09:00","22:00","09:00","22:00","09:00","22:00","2","Y","Y","서울특별시 노원구","02-2116-3329","2021-09-13","3100000","2022-02-14 14:37:28.0"
"화랑대 철도공원","서울특별시","노원구","11350","서울특별시 노원구 공릉동 29-16","서울특별시 노원구 공릉동 29-16","37.6253637","127.090408","화랑대 철도공원","09:00","22:00","09:00","22:00","09:00","22:00","2","Y","Y","서울특별시 노원구","02-2116-3329","2021-09-13","3100000","2022-02-14 14:37:28.0"
"불암산생태학습관 산책로 첫번째 쉼터","서울특별시","노원구","11350","서울특별시 노원구 한글비석로12길 37","서울특별시 노원구 중계동 산40-4","37.65622302","127.080312","불암산 순환산책로 첫번째 쉼터","09:00","22:00","09:00","22:00","09:00","22:00","2","Y","Y","서울특별시 노원구","02-2116-3329","2021-09-13","3100000","2022-02-14 14:37:28.0"
"영축산근린공원 산책로 첫번째 쉼터","서울특별시","노원구","11350","서울특별시 노원구 월계로 44가길","서울특별시 노원구 월계동 산130","37.625018","127.056758","영축산 순환산책로 첫번째 쉼터","09:00","22:00","09:00","22:00","09:00","22:00","2","Y","Y","서울특별시 노원구","02-2116-3329","2021-09-13","3100000","2022-02-14 14:37:28.0"
"삼육대학교","서울특별시","노원구","11350","서울특별시 노원구 화랑로 815","서울특별시 노원구 공릉동 26-21","37.64335737","127.1088503","삼육대학교 바울관1층 장애학생 휴게실","09:00","18:00","09:00","18:00","00:00","00:00","2","Y","N","서울특별시 노원구","02-2116-3329","2021-09-13","3100000","2022-02-14 14:37:28.0"
"롯데마트 중계점","서울특별시","노원구","11350","서울특별시 노원구 노원로 330","서울특별시 노원구 중계동 360","37.64679053","127.0709409","롯데마트중계점 지하1층 엘리베이터 치과 옆","10:00","22:00","10:00","22:00","10:00","22:00","2","Y","N","서울특별시 노원구","02-2116-3329","2021-09-13","3100000","2022-02-14 14:37:28.0"
"불암산 스포츠타운 장애인론볼장","서울특별시","노원구","11350","서울특별시 노원구 중계로 36","서울특별시 노원구 공릉동 141","37.63877923","127.0832403","불암산 스포츠타운 장애인론볼장","09:00","18:00","09:00","18:00","00:00","00:00","2","Y","Y","서울특별시 노원구","02-2116-3329","2021-09-13","3100000","2022-02-14 14:37:28.0"
"서초역","서울특별시","서초구","11650","서울특별시 서초구 서초대로 지하 233","서울특별시 서초구 서초동 1748-5","37.49182471","127.0075807","3번출구 모래함 옆","09:00","18:00","09:00","18:00","09:00","18:00","2","Y","Y","서초구청","02-2155-6676","2021-10-18","3210000","2022-02-14 14:37:28.0"
"내곡열린문화센터","서울특별시","서초구","11650","서울특별시 서초구 청계산로15길 77","서울특별시 서초구 신원동 340-3","37.44935855","127.0583149","1층 로비","09:00","18:00","09:00","18:00","09:00","18:00","2","Y","Y","서초구청","02-2155-6676","2021-10-18","3210000","2022-02-14 14:37:28.0"
"양재2동주민센터","서울특별시","서초구","11650","서울특별시 서초구 강남대로12길 44","서울특별시 서초구 양재동 323-1","37.47064403","127.0412842","1층 민원실 입구","09:00","18:00","09:00","18:00","09:00","18:00","2","Y","Y","서초구청","02-2155-6676","2021-10-18","3210000","2022-02-14 14:37:28.0"
"우면주공아파트","서울특별시","서초구","11650","서울특별시 서초구 바우뫼로7길 11","서울특별시 서초구 우면동 63","37.46986315","127.0238659","관리사무소 입구","09:00","20:00","09:00","18:00","09:00","18:00","2","Y","Y","서초구청","02-2155-6676","2021-10-18","3210000","2022-02-14 14:37:28.0"
"고속터미널역","서울특별시","서초구","11650","서울특별시 서초구 신반포로 지하 188","서울특별시 서초구 반포동 19-11","37.50464799","127.0044424","9호선 환승 승강장","06:00","23:59","06:00","23:00","06:00","23:00","2","Y","Y","서초구청","02-2155-6676","2021-10-18","3210000","2022-02-14 14:37:28.0"
"고속버스터미널(센트럴시티)","서울특별시","서초구","11650","서울특별시 서초구 신반포로 176","서울특별시 서초구 반포동 19-3","37.50393446","127.0024112","휠체어 탑승게이트","06:00","23:59","06:00","23:00","06:00","23:00","2","Y","Y","서초구청","02-2155-6676","2021-10-18","3210000","2022-02-14 14:37:28.0"
"고속버스터미널(경부선)","서울특별시","서초구","11650","서울특별시 서초구 신반포로 194","서울특별시 서초구 반포동 19-4","37.50643547","127.0068357","휠체어 탑승게이트","06:00","23:59","06:00","23:00","06:00","23:00","2","Y","Y","서초구청","02-2155-6676","2021-10-18","3210000","2022-02-14 14:37:28.0"
"서울성모병원","서울특별시","서초구","11650","서울특별시 서초구 반포대로 222","서울특별시 서초구 반포동 505","37.50239362","127.0058443","별관 로비","08:00","19:00","08:00","13:00","08:00","13:00","2","Y","Y","서초구청","02-2155-6676","2021-10-18","3210000","2022-02-14 14:37:28.0"
"서초문화예술회관","서울특별시","서초구","11650","서울특별시 서초구 강남대로 201","서울특별시 서초구 양재동 25","37.4818291","127.0359583","1층 공연장 대기실 옆","07:00","23:00","07:00","18:00","07:00","18:00","2","Y","Y","서초구청","02-2155-6676","2021-10-18","3210000","2022-02-14 14:37:28.0"
"월계2분회(지체장애인협회)","서울특별시","노원구","11350","서울특별시 노원구 초안산로1길 15","서울특별시 노원구 월계동 556","37.6272976","127.053318","월계주공1단지 104동~105동 월계2분회(지체장애인협회)","09:00","18:00","00:00","00:00","00:00","00:00","2","N","N","서울특별시 노원구","02-2116-3329","2021-09-13","3100000","2022-02-14 14:37:28.0"
"월계2동 주민센터","서울특별시","노원구","11350","서울특별시 노원구 초안산로5길 28","서울특별시 노원구 월계동 777","37.6325101","127.050781","월계2동 주민센터","09:00","18:00","00:00","00:00","00:00","00:00","2","Y","Y","서울특별시 노원구","02-2116-3329","2021-09-13","3100000","2022-02-14 14:37:28.0"
"월계3분회(지체장애인협회)","서울특별시","노원구","11350","서울특별시 노원구 월계로55길 4","서울특별시 노원구 월계동 321","37.6319322","127.060913","월계사슴아파트 106동옆 월계3분회(지체장애인협회)","09:00","18:00","00:00","00:00","00:00","00:00","2","N","N","서울특별시 노원구","02-2116-3329","2021-09-13","3100000","2022-02-14 14:37:28.0"
"공릉1분회(지체장애인협회)","서울특별시","노원구","11350","서울특별시 노원구 공릉동 708-1","서울특별시 노원구 공릉동 708-1","37.6299912","127.069041","라이프2단지 배드민턴장 안 공릉1분회(지체장애인협회)","09:00","18:00","00:00","00:00","00:00","00:00","2","Y","Y","서울특별시 노원구","02-2116-3329","2021-09-13","3100000","2022-02-14 14:37:28.0"
"공릉2동 주민센터","서울특별시","노원구","11350","서울특별시 노원구 공릉2동 노원로1길 68","서울특별시 노원구 공릉동 87-7","37.6212564","127.083378","공릉2동주민센터","09:00","18:00","00:00","00:00","00:00","00:00","2","N","N","서울특별시 노원구","02-2116-3329","2021-09-13","3100000","2022-02-14 14:37:28.0"
"태릉입구역 만남의광장","서울특별시","노원구","11350","서울특별시 노원구 공릉1동 동일로 988","서울특별시 노원구 공릉동 678-1","37.6184443","127.076329","태릉입구역 만남의광장","09:00","22:00","09:00","22:00","09:00","22:00","2","Y","Y","서울특별시 노원구","02-2116-3329","2021-09-13","3100000","2022-02-14 14:37:28.0"
"하계1분회(지체장애인협회)","서울특별시","노원구","11350","서울특별시 노원구 노원로16길 15","서울특별시 노원구 하계동 256-23","37.64344507","127.0733372","중계주공9단지 901동 상가옆 하계1분회(지체장애인협회)","09:00","18:00","00:00","00:00","00:00","00:00","2","N","N","서울특별시 노원구","02-2116-3329","2021-09-13","3100000","2022-02-14 14:37:28.0"
"서울특별시기능장애인협회 노원","서울특별시","노원구","11350","서울특별시 노원구 한글비석로 178","서울특별시 노원구 하계동 산12-27","37.6434232","127.076772","서울특별시기능장애인협회 노원","09:00","16:00","00:00","00:00","00:00","00:00","2","Y","Y","서울특별시 노원구","02-2116-3329","2021-09-13","3100000","2022-02-14 14:37:28.0"
"중계본동 주민센터","서울특별시","노원구","11350","서울특별시 노원구 중계로 143","서울특별시 노원구 중계동 363-4","37.6478032","127.080285","중계본동주민센터","09:00","18:00","00:00","00:00","00:00","00:00","2","N","N","서울특별시 노원구","02-2116-3329","2021-09-13","3100000","2022-02-14 14:37:28.0"
"중계1단지분회(지체장애인협회)","서울특별시","노원구","11350","서울특별시 노원구 동일로210길 22","서울특별시 노원구 동일로210길 22","37.6469079","127.065218","중계주공1단지 103동옆 중계1단지분회(지체장애인협회)","09:00","18:00","00:00","00:00","00:00","00:00","2","N","N","서울특별시 노원구","02-2116-3329","2021-09-13","3100000","2022-02-14 14:37:28.0"
"평화종합사회복지관","서울특별시","노원구","11350","서울특별시 노원구 노원로 331","서울특별시 노원구 중계동 514-3","37.64617746","127.0696600112","평화종합사회복지관 2층","09:00","18:00","00:00","00:00","00:00","00:00","2","N","N","서울특별시 노원구","02-2116-3329","2021-09-13","3100000","2022-02-14 14:37:28.0"
"중계2.3동 주민센터 입구","서울특별시","노원구","11350","서울특별시 노원구 노원로17길 56","서울특별시 노원구 중계동 511-1","37.6421307","127.068731","중계2.3동주민센터 입구","09:00","18:00","00:00","00:00","00:00","00:00","2","Y","Y","서울특별시 노원구","02-2116-3329","2021-09-13","3100000","2022-02-14 14:37:28.0"
"중계4동분회(지체장애인협회)","서울특별시","노원구","11350","서울특별시 노원구 덕릉로 662","서울특별시 노원구 중계동 358","37.6560921","127.074967","중계종합사회복지관 뒤 중계4동분회(지체장애인협회)","09:00","18:00","00:00","00:00","00:00","00:00","2","Y","Y","서울특별시 노원구","02-2116-3329","2021-09-13","3100000","2022-02-14 14:37:28.0"
"중계4동 주민센터","서울특별시","노원구","11350","서울특별시 노원구 덕릉로82길 50","서울특별시 노원구 중계동 369-2","37.6587371","127.077976","중계4동주민센터","09:00","18:00","00:00","00:00","00:00","00:00","2","Y","Y","서울특별시 노원구","02-2116-3329","2021-09-13","3100000","2022-02-14 14:37:28.0"
"노원교옆 고가도로 아래(한울상인회)","서울특별시","노원구","11350","서울특별시 노원구 동일로 243길","서울특별시 노원구 상계동 1146-2","37.678925","127.051602","노원교옆 고가도로 아래","09:00","18:00","00:00","00:00","00:00","00:00","2","Y","Y","서울특별시 노원구","02-2116-3329","2021-09-13","3100000","2022-02-14 14:37:28.0"
"상계6동분회(지체장애인협회)","서울특별시","노원구","11350","서울특별시 노원구 덕릉로70가길 101","서울특별시 노원구 상계동 771-3","37.6419748","127.057024","상계마들아파트 관리사무소 1층 상계6동분회(지체장애인협회)","09:00","18:00","00:00","00:00","00:00","00:00","2","N","N","서울특별시 노원구","02-2116-3329","2021-09-13","3100000","2022-02-14 14:37:28.0"
"상계1동주민센터","서울특별시","노원구","11350","서울특별시 노원구 동일로 1697","서울특별시 노원구 상계동 1259","37.6799287","127.054963","상계1동주민센터","09:00","18:00","00:00","00:00","00:00","00:00","2","N","N","서울특별시 노원구","02-2116-3329","2021-09-13","3100000","2022-02-14 14:37:28.0"
"상계34동주민센터","서울특별시","노원구","11350","서울특별시 노원구 덕릉로 859","서울특별시 노원구 상계동 37-7","37.6729097","127.083236","상계34동주민센터","09:00","18:00","00:00","00:00","00:00","00:00","2","N","N","서울특별시 노원구","02-2116-3329","2021-09-13","3100000","2022-02-14 14:37:28.0"
"상계10동주민센터","서울특별시","노원구","11350","서울특별시 노원구 노원로 530","서울특별시 노원구 상계동 671","37.6612789","127.060262","상계10동주민센터","09:00","18:00","00:00","00:00","00:00","00:00","2","N","N","서울특별시 노원구","02-2116-3329","2021-09-13","3100000","2022-02-14 14:37:28.0"
"아산병원","서울특별시","송파구","11710","서울특별시 송파구 올림픽로 43길 88","","37.525158","127.109526","아산병원 동관 후문 옆","04:00","24:00","04:00","24:00","04:00","24:00","2","N","Y","서울특별시 송파구","02-2147-5000","2020-02-18","3230000","2022-02-14 14:37:28.0"
"영등포구","서울특별시","영등포구","11560","서울특별시 영등포구 양산로23길 11","서울특별시 영등포구 당산동3가 250","37.52516442","126.8974018","당산1동주민센터 1층 안쪽","09:00","18:00","00:00","00:00","00:00","00:00","2","Y","Y","서울특별시 영등포구","02-3457-1120","2021-04-14","3180000","2022-02-14 14:37:28.0"
"영등포구","서울특별시","영등포구","11560","서울특별시 영등포구 국제금융로 124","서울특별시 영등포구 여의도동 53-22","37.517642","126.934614","여의동주민센터 입구 안쪽","09:00","18:00","00:00","00:00","00:00","00:00","2","Y","Y","서울특별시 영등포구","02-2670-7125","2021-04-14","3180000","2022-02-14 14:37:28.0"
"송파구 보건지소","서울특별시","송파구","11710","서울특별시 송파구 양산로 5","","37.489771","127.142672","송파구 보건지소 1층 현관 로비","09:00","17:00","00:00","00:00","00:00","00:00","2","N","Y","서울특별시 송파구","02-2147-5000","2020-02-18","3230000","2022-02-14 14:37:29.0"
"가락본동주민센터","서울특별시","송파구","11710","서울특별시 송파구 송파대로 28길 39","","37.495579","127.121763","가락본동주민센터 1층 민원대기실","09:00","17:00","00:00","00:00","00:00","00:00","2","N","Y","서울특별시 송파구","02-2147-5000","2020-02-18","3230000","2022-02-14 14:37:29.0"
"석촌역","서울특별시","송파구","11710","서울특별시 송파구 송파대로 지하 439","","37.505948","127.106344","석촌역 지하 1층 화장실 옆","05:00","23:00","05:00","23:00","05:00","23:00","2","N","Y","서울특별시 송파구","02-2147-5000","2020-02-18","3230000","2022-02-14 14:37:29.0"
"장지역","서울특별시","송파구","11710","서울특별시 송파구 송파대로 지하 82","","37.478120","127.126424","장지역 지하 1층 EV 4호기 앞","05:00","23:00","05:00","23:00","05:00","23:00","2","N","Y","서울특별시 송파구","02-2147-5000","2020-02-18","3230000","2022-02-14 14:37:29.0"
"삼전역","서울특별시","송파구","11710","서울특별시 송파구 백제고분로 지하 189","","37.5043233109","127.0880837903","삼전역 지하 1층 역무창고 옆","05:00","23:00","05:00","23:00","05:00","23:00","2","N","Y","서울특별시 송파구","02-2147-5000","2020-02-18","3230000","2022-02-14 14:37:29.0"
"석촌고분역","서울특별시","송파구","11710","서울특별시 송파구 백제고분로 지하 274","","37.502489","127.0968847883","석촌고분역 지하 1층 EV 3호기 앞","05:00","23:00","05:00","23:00","05:00","23:00","2","N","Y","서울특별시 송파구","02-2147-5000","2020-02-18","3230000","2022-02-14 14:37:29.0"
"석촌역","서울특별시","송파구","11710","서울특별시 송파구 백제고분로 지하 368","","37.505100","127.107117","석촌역 지하 1층 자동문 옆","05:00","23:00","05:00","23:00","05:00","23:00","2","N","Y","서울특별시 송파구","02-2147-5000","2020-02-18","3230000","2022-02-14 14:37:29.0"
"송파나루역","서울특별시","송파구","11710","서울특별시 송파구 백제고분로 지하 446","","37.5103503787","127.1122320440","송파나루역 지하 1층 민원발급기 옆","05:00","23:00","05:00","23:00","05:00","23:00","2","N","Y","서울특별시 송파구","02-2147-5000","2020-02-18","3230000","2022-02-14 14:37:29.0"
"한성백제역","서울특별시","송파구","11710","서울특별시 송파구 위례성대로 지하 29","","37.5163401025","127.1161140444","한성백제역 지하 1층 편의점 옆","05:00","23:00","05:00","23:00","05:00","23:00","2","N","Y","서울특별시 송파구","02-2147-5000","2020-02-18","3230000","2022-02-14 14:37:29.0"
"올림픽공원역","서울특별시","송파구","11710","서울특별시 송파구 양재대로 지하 1231","","37.516887","127.130919","올림픽공원역 지하 1층 편의점 물품보관함 옆","05:00","23:00","05:00","23:00","05:00","23:00","2","N","Y","서울특별시 송파구","02-2147-5000","2020-02-18","3230000","2022-02-14 14:37:29.0"
"인성장애인복지관","서울특별시","송파구","11710","서울특별시 송파구 마천로61길 26?","","37.493896","127.155182","인성장애인복지관 지하 1층 보조계단 앞","09:00","17:00","00:00","00:00","00:00","00:00","2","Y","Y","서울특별시 송파구","02-2147-5000","2020-02-18","3230000","2022-02-14 14:37:29.0"
"송파구장애인운전교육원","서울특별시","송파구","11710","서울특별시 송파구 삼학사로2길 49?","","37.496666","127.100541","송파구장애인운전교육원 조립식건물 출입문 우측","09:00","17:00","00:00","00:00","00:00","00:00","2","N","Y","서울특별시 송파구","02-2147-5000","2020-02-18","3230000","2022-02-14 14:37:29.0"
"서울지체장애인협회 송파구지회","서울특별시","송파구","11710","서울특별시 송파구 문정로 170","","37.493983","127.137841","서울지체장애인협회 송파구지회 조립식건물 출입문 좌측","09:00","17:00","00:00","00:00","00:00","00:00","2","N","Y","서울특별시 송파구","02-2147-5000","2020-02-18","3230000","2022-02-14 14:37:29.0"
"송파노인종합복지관","서울특별시","송파구","11710","서울특별시 송파구 백제고분로32길 41","","37.498667","127.094894","송파노인종합복지관 실외 1층 출입구","00:00","24:00","00:00","24:00","00:00","24:00","2","Y","Y","서울특별시 송파구","02-2147-5000","2020-02-18","3230000","2022-02-14 14:37:29.0"
"송파안전체험교육관","서울특별시","송파구","11710","서울특별시 송파구 성내천로 35길 53","","37.500386","127.158815","송파안전체험교육관 1층 로비","09:00","17:00","09:00","15:00","00:00","00:00","2","N","Y","서울특별시 송파구","02-2147-5000","2020-02-18","3230000","2022-02-14 14:37:29.0"
"서초구청","서울특별시","서초구","11650","서울특별시 서초구 남부순환로 2584","서울특별시 서초구 서초동 1376-3","37.48362486","127.0326848","1층 로비","09:00","18:00","09:00","18:00","09:00","18:00","2","Y","Y","서초구청","02-2155-6676","2021-10-18","3210000","2022-02-14 14:37:29.0"
"한우리정보문화센터","서울특별시","서초구","11650","서울특별시 서초구 남부순환로340길 15","서울특별시 서초구 서초동 380","37.48205177","127.025014","1층 로비","09:00","18:00","09:00","15:00","09:00","23:59","2","Y","Y","서초구청","02-2155-6676","2021-10-18","3210000","2022-02-14 14:37:29.0"
"우면종합사회복지관","서울특별시","서초구","11650","서울특별시 서초구 바우뫼로7길 11","서울특별시 서초구 우면동 63","37.46986315","127.0238659","3층 로비","09:00","18:00","09:00","15:00","09:00","23:59","2","Y","Y","서초구청","02-2155-6676","2021-10-18","3210000","2022-02-14 14:37:29.0"
"사랑의 복지관","서울특별시","서초구","11650","서울특별시 서초구 강남대로65길 19","서울특별시 서초구 서초동 1310-10","37.49983787","127.0239976","1층 로비","09:00","18:00","09:00","15:00","09:00","23:59","2","Y","Y","서초구청","02-2155-6676","2021-10-18","3210000","2022-02-14 14:37:29.0"
"중앙노인 종합복지관","서울특별시","서초구","11650","서울특별시 서초구 서초대로54길 45","서울특별시 서초구 서초동 1666-17","37.49232472","127.0168124","1층 로비","09:00","18:00","09:00","15:00","09:00","23:59","2","Y","Y","서초구청","02-2155-6676","2021-10-18","3210000","2022-02-14 14:37:29.0"
"예술의전당","서울특별시","서초구","11650","서울특별시 서초구 남부순환로 2406","서울특별시 서초구 서초동 700","37.48024074","127.0142139","지하 1층 출입구","09:00","18:00","09:00","18:00","09:00","18:00","2","Y","Y","서초구청","02-2155-6676","2021-10-18","3210000","2022-02-14 14:37:29.0"
"반포한강공원","서울특별시","서초구","11650","서울특별시 서초구 신반포로11길 40","서울특별시 서초구 반포동 115-5","37.5076669","126.9927035","반포안내센터 1층","09:00","18:00","09:00","18:00","09:00","18:00","2","Y","Y","서초구청","02-2155-6676","2021-10-18","3210000","2022-02-14 14:37:29.0"
"논현역","서울특별시","서초구","11650","서울특별시 서초구 주흥15길 41","서울특별시 서초구 반포동 712","37.50791567","127.0172231","지하2층 대합실 14번 기둥","09:00","18:00","09:00","18:00","09:00","18:00","2","Y","Y","서초구청","02-2155-6676","2021-10-18","3210000","2022-02-14 14:37:29.0"
"반포역","서울특별시","서초구","11650","서울특별시 서초구 신반포로 지하 200","서울특별시 서초구 잠원동 103","37.50621932","127.0050533","지하2층 대합실 자동사진기 옆 벽면","09:00","18:00","09:00","18:00","09:00","18:00","2","Y","Y","서초구청","02-2155-6676","2021-10-18","3210000","2022-02-14 14:37:29.0"
"고속터미널역","서울특별시","서초구","11650","서울특별시 서초구 신반포로 지하 188","서울특별시 서초구 반포동 19-11","37.50464799","127.0044424","7호선 지하2층 대합실","09:00","18:00","09:00","18:00","09:00","18:00","2","Y","Y","서초구청","02-2155-6676","2021-10-18","3210000","2022-02-14 14:37:29.0"
"내방역","서울특별시","서초구","11650","서울특별시 서초구 서초대로 지하 103","서울특별시 서초구 방배동 874-16","37.48753236","126.9931886","지하2층 대합실 기술지원반 입구 벽면","09:00","18:00","09:00","18:00","09:00","18:00","2","Y","Y","서초구청","02-2155-6676","2021-10-18","3210000","2022-02-14 14:37:29.0"
"이수역","서울특별시","서초구","11650","서울특별시 서초구 동작대로 86","서울특별시 서초구 방배동 438-24","37.48423356","126.9824386","지하3층 대합실 ES9호기 근처 벽면","09:00","18:00","09:00","18:00","09:00","18:00","2","Y","Y","서초구청","02-2155-6676","2021-10-18","3210000","2022-02-14 14:37:29.0"
"사당역","서울특별시","서초구","11650","서울특별시 서초구 효령로 5","서울특별시 서초구 방배동 447-7","37.47655368","126.9847738","2호선 14번출구 현금 인출기 옆","09:00","18:00","09:00","18:00","09:00","18:00","2","Y","Y","서초구청","02-2155-6676","2021-10-18","3210000","2022-02-14 14:37:29.0"
"잠원역","서울특별시","서초구","11650","서울특별시 서초구 잠원로4길 지하 46","서울특별시 서초구 잠원동 100-1","37.51279984","127.0112204","4번출구 고객안내센터 옆","09:00","18:00","09:00","18:00","09:00","18:00","2","Y","Y","서초구청","02-2155-6676","2021-10-18","3210000","2022-02-14 14:37:29.0"
"천왕역","서울특별시","구로구","11530","서울특별시 구로구 오리로 지하 1154","서울특별시 구로구 천왕동 14-43","37.48682059","126.8387128","천왕역 7호선","06:00","23:00","06:00","23:00","06:00","23:00","2","Y","N","서울특별시 구로구청","02-860-2374","2022-01-01","3160000","2022-02-14 14:37:29.0"
"온수역","서울특별시","구로구","11530","서울특별시 구로구 경인로3길 지하 64","서울특별시 구로구 온수동 53-16","37.49215065","126.8233816","온수역 7호선","06:00","23:00","06:00","23:00","06:00","23:00","2","Y","N","서울특별시 구로구청","02-860-2374","2022-01-01","3160000","2022-02-14 14:37:29.0"
"구일역","서울특별시","구로구","11530","서울특별시 구로구 구일로 133","서울특별시 구로구 구로동 636-46","37.49639172","126.8699216","구일역 1호선","06:00","23:00","06:00","23:00","06:00","23:00","2","Y","N","서울특별시 구로구청","02-860-2374","2022-01-01","3160000","2022-02-14 14:37:29.0"
"대림역","서울특별시","구로구","11530","서울특별시 구로구 도림천로 351","서울특별시 구로구 구로동 1204","37.49330996","126.8949446","대림역 2호선","06:00","23:00","06:00","23:00","06:00","23:00","2","Y","N","서울특별시 구로구청","02-860-2374","2022-01-01","3160000","2022-02-14 14:37:29.0"
"구로조은장애인자립생활센터","서울특별시","구로구","11530","서울특별시 구로구 디지털로31길 38-21","서울특별시 구로구 구로동 197-33","37.48652247","126.8937149","2층","09:00","18:00","00:00","00:00","00:00","00:00","2","N","Y","서울특별시 구로구청","02-860-2381","2022-01-01","3160000","2022-02-14 14:37:29.0"
"구로장애인자립생활센터","서울특별시","구로구","11530","서울특별시 구로구 가마산로27길 14","서울특별시 구로구 구로동 106-8","37.49772931","126.8918534","8층","09:30","18:30","00:00","00:00","00:00","00:00","2","N","Y","서울특별시 구로구청","02-860-2382","2022-01-01","3160000","2022-02-14 14:37:29.0"
"복정역","서울특별시","송파구","11710","서울특별시 송파구 송파대로 6","","37.471055","127.126770","복정역 지하 1층 화장실입구 옆","05:00","23:00","05:00","23:00","05:00","23:00","1","N","N","서울특별시 송파구","02-2147-5000","2020-02-18","3230000","2022-02-14 14:37:29.0"
"송파구청","서울특별시","송파구","11710","서울특별시 송파구 올림픽로 326","","37.514476","127.105859","송파구청 1층 종합상황실 옆","09:00","22:00","09:00","22:00","09:00","22:00","2","N","Y","서울특별시 송파구","02-2147-5000","2020-02-18","3230000","2022-02-14 14:37:29.0"
"방이복지관","서울특별시","송파구","11710","서울특별시 송파구 오금로11길 68","","37.514644","127.114189","방이복지관 4층","09:00","17:00","00:00","00:00","00:00","00:00","1","N","N","서울특별시 송파구","02-2147-5000","2020-02-18","3230000","2022-02-14 14:37:29.0"
"서울장애인자립생활센터","서울특별시","송파구","11710","서울특별시 송파구 오금로 507 거여빌딩 6층","","37.493235","127.145180","6층 열린공간","09:00","17:00","00:00","00:00","00:00","00:00","1","N","N","서울특별시 송파구","02-2147-5000","2020-02-18","3230000","2022-02-14 14:37:29.0"
"영등포구","서울특별시","영등포구","11560","서울특별시 영등포구 당산로29길 9(당산동3가)","서울특별시 영등포구 당산동3가 407","37.5259814870","126.8939755627","치매지원센터 입구 안쪽","09:00","18:00","00:00","00:00","00:00","00:00","2","Y","Y","서울특별시 영등포구","02-831-0855","2021-04-14","3180000","2022-02-14 14:37:29.0"
"종합운동장역","서울특별시","송파구","11710","서울특별시 송파구 올림픽로 23","","37.510968","127.073356","9호선 종합운동장역 지하1층 9번 출구 고객안전실 앞","05:00","23:00","05:00","23:00","05:00","23:00","1","N","N","서울특별시 송파구","02-2147-5000","2020-02-18","3230000","2022-02-14 14:37:29.0"
"잠실역","서울특별시","송파구","11710","서울특별시 송파구 올림픽로 305","","37.514978","127.104217","8호선 잠실역 고객안내센터 좌측 30M","05:00","23:00","05:00","23:00","05:00","23:00","1","N","N","서울특별시 송파구","02-2147-5000","2020-02-18","3230000","2022-02-14 14:37:29.0"
"몽촌토성역","서울특별시","송파구","11710","서울특별시 송파구 올림픽로 383","","37.517623","127.112428","몽촌토성역 지하 2층 고객상담실 옆","05:00","23:00","05:00","23:00","05:00","23:00","1","N","N","서울특별시 송파구","02-2147-5000","2020-02-18","3230000","2022-02-14 14:37:29.0"
"올림픽공원역","서울특별시","송파구","11710","서울특별시 송파구 양재대로 1233","","37.516087","127.130601","5호선 올림픽공원역 지하1층 아이센터 옆","05:00","23:00","05:00","23:00","05:00","23:00","1","N","N","서울특별시 송파구","02-2147-5000","2020-02-18","3230000","2022-02-14 14:37:29.0"
"마천역","서울특별시","송파구","11710","서울특별시 송파구 마천로57길 7","","37.494639","127.152027","마천역 지하 2층 편의점 옆","05:00","23:00","05:00","23:00","05:00","23:00","1","N","N","서울특별시 송파구","02-2147-5000","2020-02-18","3230000","2022-02-14 14:37:29.0"
"가락시장역","서울특별시","송파구","11710","서울특별시 송파구 송파대로 257","","37.492742","127.118484","3호선 가락시장역 고객안내센터 옆","05:00","23:00","05:00","23:00","05:00","23:00","1","N","N","서울특별시 송파구","02-2147-5000","2020-02-18","3230000","2022-02-14 14:37:29.0"
"영등포구","서울특별시","영등포구","11560","서울특별시 영등포구 영등포로53길 22(영등포동2가)","서울특별시 영등포구 영등포동2가 222-2","37.520349","126.910671","영등포동 주민센터 입구 안쪽","09:00","18:00","00:00","00:00","00:00","00:00","2","Y","Y","서울특별시 영등포구","02-2670-1034","2021-04-14","3180000","2022-02-14 14:37:29.0"
"영등포구","서울특별시","영등포구","11560","서울특별시 영등포구 영등포로84길24-5(신길동)","서울특별시 영등포구 신길동 465-1","37.511118","126.921465","신길1동 주민센터 입구 안쪽","09:00","18:00","00:00","00:00","00:00","00:00","2","Y","Y","서울특별시 영등포구","02-2670-1259","2021-04-14","3180000","2022-02-14 14:37:29.0"
"영등포구","서울특별시","영등포구","11560","서울특별시 영등포구 대림로197(대림동)","서울특별시 영등포구 대림동 740-4","37.498315","126.898022","대림3동 주민센터 입구 안쪽","09:00","18:00","00:00","00:00","00:00","00:00","2","Y","Y","서울특별시 영등포구","02-2670-1424","2021-04-14","3180000","2022-02-14 14:37:29.0"
"영등포구","서울특별시","영등포구","11560","서울특별시 영등포구 도신로183(신길동 태광빌딩)","서울특별시 영등포구 신길동 215-9","37.511149","126.911518","푸드마켓 1호점 입구 안쪽","09:00","18:00","00:00","00:00","00:00","00:00","2","Y","Y","서울특별시 영등포구","02-843-1377","2021-04-14","3180000","2022-02-14 14:37:29.0"
"영등포구","서울특별시","영등포구","11560","서울특별시 영등포구 버드나루로22길 5(당산동 강변한솔그라지아)","서울특별시 영등포구 당산동 121-41","37.530917","126.907597","푸드마켓 2호점 입구 안쪽","09:00","18:00","00:00","00:00","00:00","00:00","2","Y","Y","서울특별시 영등포구","02-2632-1377","2021-04-14","3180000","2022-02-14 14:37:29.0"
"영등포구","서울특별시","영등포구","11560","서울특별시 영등포구 디지털로441(대림동)","서울특별시 영등포구 대림동 899-2","37.49545723","126.905842","보건소 분소(대림1동주민센터) 입구 안쪽","09:00","18:00","00:00","00:00","00:00","00:00","2","Y","Y","서울특별시 영등포구","02-2670-4858","2021-04-14","3180000","2022-02-14 14:37:29.0"
"영등포구","서울특별시","영등포구","11560","서울특별시 영등포구 대림로23길25(대림동)","서울특별시 영등포구 대림동 705","37.4927398096","126.898252","대림2동 주민센터 입구 안쪽","09:00","18:00","00:00","00:00","00:00","00:00","2","Y","Y","서울특별시 영등포구","02-2670-1419","2021-04-14","3180000","2022-02-14 14:37:29.0"
"영등포구","서울특별시","영등포구","11560","서울특별시 영등포구 신길로55(신길동)","서울특별시 영등포구 신길동 440-57","37.49759583","126.9079900418","장애인사랑나눔의 집 정문 입구 왼쪽","09:00","18:00","00:00","00:00","00:00","00:00","2","Y","Y","서울특별시 영등포구","02-846-0042","2021-04-14","3180000","2022-02-14 14:37:29.0"
"영등포구","서울특별시","영등포구","11560","서울특별시 영등포구 버드나루로22(영등포동2가)","서울특별시 영등포구 영등포동2가 94-379","37.5208582747","126.9129017429","영등포장애인복지관 정문 입구","09:00","18:00","00:00","00:00","00:00","00:00","2","Y","Y","서울특별시 영등포구","02-3667-7979","2021-04-14","3180000","2022-02-14 14:37:29.0"
"영등포구","서울특별시","영등포구","11560","서울특별시 영등포구 도림로482(문래동3가)","서울특별시 영등포구 문래동3가 76-2","37.5168563355","126.8905583","영등포노인종합복지관 입구 안쪽","09:00","18:00","00:00","00:00","00:00","00:00","2","Y","Y","서울특별시 영등포구","02-2068-0075","2021-04-14","3180000","2022-02-14 14:37:29.0"
"영등포구","서울특별시","영등포구","11560","서울특별시 영등포구 당산로123(당산동3가)","서울특별시 영등포구 당산동3가 385-1","37.525964","126.8963671305","보건소 민원실 1층","09:00","18:00","00:00","00:00","00:00","00:00","2","Y","Y","서울특별시 영등포구","02-2670-3114","2021-04-14","3180000","2022-02-14 14:37:29.0"
"오동근린공원","서울특별시","강북구","11305","서울특별시 강북구 덕릉로42길 49","서울특별시 강북구 번동 산17-11","37.633061","127.0322063","실내배드민턴장 뒤편","00:00","24:00","00:00","24:00","00:00","24:00","2","N","Y","강북구청","02-901-6677","2021-10-08","3080000","2022-02-14 14:37:29.0"
"강북장애인종합복지관","서울특별시","강북구","11305","서울특별시 강북구 오현로 189","서울특별시 강북구 번동 306-2","37.6287592","127.0390695","주차장","09:00","18:00","00:00","00:00","00:00","00:00","2","N","Y","강북구청","02-901-6677","2021-10-08","3080000","2022-02-14 14:37:29.0"
"강북장애인종합복지관","서울특별시","강북구","11305","서울특별시 강북구 오현로 189","서울특별시 강북구 번동 306-2","37.6287592","127.0390695","주차장","09:00","18:00","00:00","00:00","00:00","00:00","2","N","Y","강북구청","02-901-6677","2021-10-08","3080000","2022-02-14 14:37:29.0"
"강북구 보건소","서울특별시","강북구","11305","서울특별시 강북구 한천로 897","서울특별시 강북구 번동 232","37.63188022","127.0390621","보건소 입구","00:00","24:00","00:00","24:00","00:00","24:00","2","N","Y","강북구청","02-901-6677","2021-10-08","3080000","2022-02-14 14:37:29.0"
"번동2단지종합사회복지관","서울특별시","강북구","11305","서울특별시 강북구 한천로105길 24 202동","서울특별시 강북구 번동 241","37.62760841","127.0448051","복지관 1층 출입구","00:00","24:00","00:00","24:00","00:00","24:00","2","N","Y","강북구청","02-901-6677","2021-10-08","3080000","2022-02-14 14:37:29.0"
"번동3단지종합사회복지관","서울특별시","강북구","11305","서울특별시 강북구 오현로 208","서울특별시 강북구 번동 237","37.6296739","127.0411454","복지관 1층 복도","00:00","24:00","00:00","24:00","00:00","24:00","2","N","Y","강북구청","02-901-6677","2021-10-08","3080000","2022-02-14 14:37:29.0"
"번동5단지종합사회복지관","서울특별시","강북구","11305","서울특별시 강북구 한천로115길 20","서울특별시 강북구 번동 230","37.63368721","127.0345359","1층 후문 주민사랑방 앞","00:00","00:00","00:00","00:00","00:00","00:00","2","N","Y","강북구청","02-901-6677","2021-10-08","3080000","2022-02-14 14:37:29.0"
"강북구장애인단체총연합회","서울특별시","강북구","11305","서울특별시 강북구 인수봉로 291","서울특별시 강북구 수유동 545-3","37.64479193","127.0105151","장애인회관 주차장","00:00","24:00","00:00","24:00","00:00","24:00","2","N","Y","강북구청","02-901-6677","2021-10-08","3080000","2022-02-14 14:37:29.0"
"삼양동종합복지센터","서울특별시","강북구","11305","서울특별시 강북구 삼양로 47길 9","서울특별시 강북구 미아동 749-25","37.62293303","127.018544","1층 로비 사무실 앞","09:00","18:00","00:00","00:00","00:00","00:00","2","N","Y","강북구청","02-901-6677","2021-10-08","3080000","2022-02-14 14:37:29.0"
"시립 강북노인종합복지관","서울특별시","강북구","11305","서울특별시 강북구 삼양로 92길 40","서울특별시 강북구 수유동 122","37.63568736","127.018719","1층 여성안심택배 보관함 근처","00:00","24:00","00:00","24:00","00:00","24:00","2","N","Y","강북구청","02-901-6677","2021-10-08","3080000","2022-02-14 14:37:29.0"
"미아동복합청사","서울특별시","강북구","11305","서울특별시 강북구 솔매로49길 14","서울특별시 강북구 미아동 197-1","37.62709036","127.026989","1층 로비","09:00","18:00","00:00","00:00","00:00","00:00","2","N","Y","강북구청","02-901-6677","2021-10-08","3080000","2022-02-14 14:37:29.0"
"수유역","서울특별시","강북구","11305","서울특별시 강북구 도봉로338","서울특별시 강북구 수유동 수유동 140","37.637848501","127.025288164","8번출구 나가기전 상가옆 벽면","06:00","23:00","06:00","23:00","06:00","23:00","2","Y","Y","강북구청","02-901-6677","2021-10-08","3080000","2022-02-14 14:37:29.0"
"미아사거리역","서울특별시","강북구","11305","서울시 강북구 도봉로 50","서울특별시 강북구 미아동 66-1","37.61387407","127.0301002","1번출구와 6번출구 사이","06:00","23:00","06:00","23:00","06:00","23:00","2","Y","Y","강북구청","02-901-6677","2021-10-08","3080000","2022-02-14 14:37:29.0"
"강북경찰서","서울특별시","강북구","11305","서울특별시 강북구 오패산로 406","서울특별시 강북구 번동 415-15","37.63717057","127.0270418","경찰서 정문 왼쪽 신한은행ATM 옆","00:00","24:00","00:00","24:00","00:00","24:00","2","Y","Y","강북구청","02-901-6677","2021-10-08","3080000","2022-02-14 14:37:29.0"
"수유제1동 주민센터","서울특별시","강북구","11305","서울특별시 강북구 삼양로 299","서울특별시 강북구 수유동 605-412","37.63005097","127.017543","1층 입구","09:00","18:00","00:00","00:00","00:00","00:00","2","Y","Y","강북구청","02-901-6677","2021-10-08","3080000","2022-02-14 14:37:29.0"
"강북문화예술회관","서울특별시","강북구","11305","서울특별시 강북구 삼각산로 85","서울특별시 강북구 수유동 360-10","37.64098943","127.0138774","1층 입구","06:00","22:00","00:00","00:00","00:00","00:00","2","Y","Y","강북구청","02-901-6677","2021-10-08","3080000","2022-02-14 14:37:29.0"
"북서울꿈의숲(아트센터)","서울특별시","강북구","11305","서울특별시 강북구 월계로 173","서울특별시 강북구 번동 90","37.62025563","127.0443254","지하1층 로비","10:00","17:00","00:00","00:00","00:00","00:00","2","Y","Y","강북구청","02-901-6677","2021-10-08","3080000","2022-02-14 14:37:29.0"
"광진구청","서울특별시","광진구","11215","서울특별시 광진구 자양로 117","","37.53854062","127.0819145","민원복지동 1층 민원여권과 우측 출입구","09:00","18:00","09:00","18:00","00:00","00:00","2","Y","Y","서울특별시 광진구","02-450-7097","2022-01-14","3040000","2022-02-14 14:37:29.0"
"광진장애인회관","서울특별시","광진구","11215","서울특별시 광진구 자양로 209","","37.5460025","127.086046","장애인회관 본관","09:00","18:00","00:00","00:00","00:00","00:00","2","Y","Y","서울특별시 광진구","02-450-7097","2022-01-14","3040000","2022-02-14 14:37:29.0"
"광진장애인회관","서울특별시","광진구","11215","서울특별시 광진구 자양로 209","","37.5460025","127.086046","장애인회관 본관","09:00","18:00","00:00","00:00","00:00","00:00","1","N","N","서울특별시 광진구","02-450-7097","2022-01-14","3040000","2022-02-14 14:37:29.0"
"한국뇌병변장애인인권협회","서울특별시","광진구","11215","서울특별시 광진구 자양로 176","","37.543179","127.084777","광진IL센터 401호","09:00","18:00","00:00","00:00","00:00","00:00","2","Y","Y","서울특별시 광진구","02-450-7097","2022-01-14","3040000","2022-02-14 14:37:29.0"
"정립회관","서울특별시","광진구","11215","서울특별시 광진구 워커힐로93","","37.55053695","127.0979157","1층 본관 휴게실","09:00","18:00","00:00","00:00","00:00","00:00","2","Y","Y","서울특별시 광진구","02-450-7097","2022-01-14","3040000","2022-02-14 14:37:29.0"
"정립회관","서울특별시","광진구","11215","서울특별시 광진구 워커힐로93","","37.55053695","127.0979157","1층 본관 휴게실","09:00","18:00","00:00","00:00","00:00","00:00","2","Y","Y","서울특별시 광진구","02-450-7097","2022-01-14","3040000","2022-02-14 14:37:29.0"
"정립회관","서울특별시","광진구","11215","서울특별시 광진구 워커힐로93","","37.55053695","127.0979157","1층 수영장 입구","09:00","18:00","00:00","00:00","00:00","00:00","1","N","N","서울특별시 광진구","02-450-7097","2022-01-14","3040000","2022-02-14 14:37:29.0"
"금천구 가산동 주민센터","서울특별시","금천구","11545","서울특별시 금천구 가산로 129","서울특별시 금천구 가산동 144-3","37.47689074","126.891784","1층 민원실","09:00","18:00","00:00","00:00","00:00","00:00","1","Y","Y","서울특별시 금천구","02-2627-2502","2021-02-16","3170000","2022-02-14 14:37:29.0"
"금천구 독산1동 주민센터(본소)","서울특별시","금천구","11545","서울특별시 금천구 시흥대로123길 11","서울특별시 금천구 독산동 289-5","37.47022076","126.8970434","3층 민원실","09:00","18:00","00:00","00:00","00:00","00:00","1","Y","Y","서울특별시 금천구","02-2627-2504","2021-02-16","3170000","2022-02-14 14:37:29.0"
"금천구 독산2동 주민센터","서울특별시","금천구","11545","서울특별시 금천구 독산로 179","서울특별시 금천구 독산동 1043-51","37.46314785","126.9034825","1층 로비","09:00","18:00","00:00","00:00","00:00","00:00","1","Y","Y","서울특별시 금천구","02-2627-2506","2021-02-16","3170000","2022-02-14 14:37:29.0"
"금천구 독산3동 주민센터","서울특별시","금천구","11545","서울특별시 금천구 독산로 317","서울특별시 금천구 독산동 973-17","37.47515987","126.9031731","1층 민원실","09:00","18:00","00:00","00:00","00:00","00:00","1","Y","Y","서울특별시 금천구","02-2627-2508","2021-02-16","3170000","2022-02-14 14:37:29.0"
"금천구 독산4동 주민센터","서울특별시","금천구","11545","서울특별시 금천구 독산로 232","서울특별시 금천구 독산동 1022","37.46755452","126.9021682","1층 로비","09:00","18:00","00:00","00:00","00:00","00:00","1","Y","Y","서울특별시 금천구","02-2627-2510","2021-02-16","3170000","2022-02-14 14:37:29.0"
"금천구 시흥1동 주민센터","서울특별시","금천구","11545","서울특별시 금천구 시흥대로58길 36","서울특별시 금천구 시흥동 886-6","37.45355368","126.9032507","1층 입구","09:00","18:00","00:00","00:00","00:00","00:00","1","Y","Y","서울특별시 금천구","02-2627-2514","2021-02-16","3170000","2022-02-14 14:37:29.0"
"금천구 시흥3동 주민센터","서울특별시","금천구","11545","서울특별시 금천구 시흥대로18길 40","서울특별시 금천구 시흥동 956-3","37.44026038","126.9058035","1층 로비","09:00","18:00","00:00","00:00","00:00","00:00","1","Y","Y","서울특별시 금천구","02-2627-2518","2021-02-16","3170000","2022-02-14 14:37:29.0"
"강북구청","서울특별시","강북구","11305","서울특별시 강북구 도봉로89길 13","서울특별시 강북구 수유동 192-59","37.63918553","127.0254518","1층 서비스코너","09:00","18:00","00:00","00:00","00:00","00:00","2","N","Y","강북구청","02-901-6677","2021-10-08","3080000","2022-02-14 14:37:29.0"
"국립재활원","서울특별시","강북구","11305","서울특별시 강북구 삼각산로 58","서울특별시 강북구 수유동 521-6","37.63865444","127.0102649","1층 행정동 로비","09:00","18:00","00:00","00:00","00:00","00:00","2","Y","Y","강북구청","02-901-6677","2021-10-08","3080000","2022-02-14 14:37:29.0"
"오동근린공원","서울특별시","강북구","11305","서울특별시 강북구 오현로31길 51","서울특별시 강북구 번동 318","37.63045708","127.0377699","강북구민운동장 뒤 쉼터 내(데크)","00:00","24:00","00:00","24:00","00:00","24:00","2","N","Y","강북구청","02-901-6677","2021-10-08","3080000","2022-02-14 14:37:29.0"
"금천구 독산1동 주민센터(분소)","서울특별시","금천구","11545","서울특별시 금천구 한내로 69-17","서울특별시 금천구 독산동 1088-3","37.4579016","126.8877667","2층 입구","09:00","18:00","00:00","00:00","00:00","00:00","1","Y","Y","서울특별시 금천구","02-2627-2504","2021-02-16","3170000","2022-02-14 14:37:29.0"
"금천구 시흥2동 주민센터","서울특별시","금천구","11545","서울특별시 금천구 금하로 764","서울특별시 금천구 시흥동 267-9","37.44961046","126.9146113","1층 민원실 입구","09:00","18:00","00:00","00:00","00:00","00:00","1","N","N","서울특별시 금천구","02-2627-2516","2021-02-16","3170000","2022-02-14 14:37:29.0"
"금천구 시흥5동 주민센터","서울특별시","금천구","11545","서울특별시 금천구 금하로21길 20","서울특별시 금천구 시흥동 832-14","37.45235581","126.9083063","1층 민원실 입구","09:00","18:00","00:00","00:00","00:00","00:00","1","Y","N","서울특별시 금천구","02-2627-2522","2021-02-16","3170000","2022-02-14 14:37:29.0"
"금천장애인종합복지관","서울특별시","금천구","11545","서울특별시 금천구 시흥대로101길 17","서울특별시 금천구 독산동 1011-1","37.46397333","126.8963126","지하1층 보장구실","09:00","17:00","00:00","00:00","00:00","00:00","1","Y","N","금천종합장애인복지관","02-6912-8000","2021-02-16","3170000","2022-02-14 14:37:29.0"
"금천장애인자립생활센터","서울특별시","금천구","11545","서울특별시 금천구 독산로 70","서울특별시 금천구 독산동 291-1","37.45353815","126.9063238","현대지식산업센터 C동 603호","09:00","17:00","00:00","00:00","00:00","00:00","1","Y","Y","금천장애인생활센터","070-4035-4340","2021-02-16","3170000","2022-02-14 14:37:29.0"
"가오리역","서울특별시","강북구","11305","서울특별시 강북구 수유동 338-47","서울특별시 강북구 수유동 338-47","37.642384","127.016776","B1층 상선 승강장 엘리베이터 3호기 앞","06:00","23:00","06:00","23:00","06:00","23:00","2","Y","Y","강북구청","02-901-6677","2021-10-08","3080000","2022-02-14 14:37:29.0"
"대치2동주민센터","서울특별시","강남구","11680","서울특별시 강남구 영동대로 65길 24","서울특별시 강남구 대치동 980-9","37.50230604","127.0641871","대치2동 문화센터1층","06:00","22:00","06:00","22:00","00:00","00:00","2","N","Y","대치2동주민센터","02-3423-8443","2021-09-29","3220000","2022-02-14 14:37:29.0"
"개포1동주민센터","서울특별시","강남구","11680","서울특별시 강남구 개포로 303","서울특별시 강남구 개포동 653","37.48328034","127.0543931","주민센터 민원실","09:00","18:00","00:00","00:00","00:00","00:00","2","N","Y","개포1동주민센터","02-3423-7664","2021-09-29","3220000","2022-02-14 14:37:29.0"
"개포2동주민센터","서울특별시","강남구","11680","서울특별시 강남구 개포로 511","서울특별시 강남구 개포동 182","37.4897829","127.0690748","개포2동 문화센터1층","09:00","18:00","00:00","00:00","00:00","00:00","2","N","N","개포2동주민센터","02-3423-7763","2021-09-29","3220000","2022-02-14 14:37:29.0"
"수서6단지관리사무소","서울특별시","강남구","11680","서울특별시 강남구 광평로56길 11","서울특별시 강남구 수서동 723","37.48797908","127.1056314","통합경비실","00:00","24:00","00:00","24:00","00:00","24:00","2","N","N","수서6단지관리사무소","02-3411-3409","2021-09-29","3220000","2022-02-14 14:37:29.0"
"역삼주간보호센터","서울특별시","강남구","11680","서울특별시 강남구 테헤란로 8길 36","서울특별시 강남구 역삼동 827-61","37.496458","127.032019","2층 입구","09:00","18:00","00:00","00:00","00:00","00:00","2","Y","Y","역삼주간보호센터","02-518-2270","2021-09-29","3220000","2022-02-14 14:37:29.0"
"삼성2동주민센터","서울특별시","강남구","11680","서울특별시 강남구 봉은사로 419","서울특별시 강남구 삼성동 38-34","37.51120565","127.0459755","삼성2동 문화센터 1층 엘리베이터 앞","09:00","22:00","06:30","22:00","00:00","00:00","2","Y","Y","삼성2동주민센터","02-3423-8242","2021-09-29","3220000","2022-02-14 14:37:29.0"
"강남구청","서울특별시","강남구","11680","서울특별시 강남구 학동로426","서울특별시 강남구 삼성동 16-1","37.51796636","127.0470611","1층 민원실","09:00","18:00","00:00","24:00","00:00","24:00","2","N","Y","강남구청","02-3423-5888","2021-09-29","3220000","2022-02-14 14:37:29.0"
"압구정동 주민센터","서울특별시","강남구","11680","서울특별시 강남구 압구정로 201","서울특별시 강남구 압구정동 458","37.53153399","127.0292754","1층 민원실","09:00","18:00","00:00","00:00","00:00","00:00","2","Y","Y","압구정동 주민센터","02-3423-7617","2021-09-29","3220000","2022-02-14 14:37:29.0"
"청담동 주민센터","서울특별시","강남구","11680","서울특별시 강남구 압구정로79길 26","서울특별시 강남구 청담동 124-1","37.52509058","127.049244","1층 민원실","09:00","18:00","00:00","00:00","00:00","00:00","2","Y","Y","청담동 주민센터","02-3423-7705","2021-09-29","3220000","2022-02-14 14:37:29.0"
"수서역","서울특별시","강남구","11680","서울특별시 강남구 광평로 지하270","서울특별시 강남구 수서동 728","37.48738773","127.101893","상가(미샤) 공중전화 부근","05:30","00:30","05:30","00:30","05:30","00:30","2","N","Y","수서역","02-6110-3491","2021-09-29","3220000","2022-02-14 14:37:29.0"
"선릉역","서울특별시","강남구","11680","서울특별시 강남구 테헤란로 지하340","서울특별시 강남구 삼성동 172-66","37.50450288","127.0489425","게이트 나와 화장실 사이","05:30","00:30","05:30","00:30","05:30","00:30","2","N","Y","선릉역","02-6110-2201","2021-09-29","3220000","2022-02-14 14:37:29.0"
"굿잡자립센터","서울특별시","강남구","11680","서울특별시 강남구 테헤란로8길 36","서울특별시 강남구 역삼동 827-61","37.49649864","127.032067","보조공학 서비스센터 안쪽","09:00","18:00","00:00","00:00","00:00","00:00","1","Y","Y","굿잡자립센터","02-518-2209","2021-09-29","3220000","2022-02-14 14:37:29.0"
"논현노인 종합복지관","서울특별시","강남구","11680","서울특별시 강남구 강남대로128길 59","서울특별시 강남구 논현동 125-13","37.51206587","127.0260872","1층 주차장 내부","09:00","18:00","00:00","00:00","00:00","00:00","2","N","Y","논현노인종합복지관","02-541-0226","2021-09-29","3220000","2022-02-14 14:37:29.0"
"강남노인종합복지관","서울특별시","강남구","11680","서울특별시 강남구 삼성로628","서울특별시 강남구 삼성동 66","37.51590994","127.0521409","1층 카페 통로측","09:00","18:00","00:00","00:00","00:00","00:00","2","N","Y","강남노인종합복지관","070-8031-2387","2021-09-29","3220000","2022-02-14 14:37:29.0"
"수서명화종합사회복지관","서울특별시","강남구","11680","서울특별시 강남구 광평로51길 49","서울특별시 강남구 수서동 707","37.49213604","127.0997527","1층 주출입구 좌측 내부","09:00","18:00","00:00","00:00","00:00","00:00","2","N","Y","수서명화종합사회복지관","02-459-2696","2021-09-29","3220000","2022-02-14 14:37:29.0"
"강남세움복지관","서울특별시","강남구","11680","서울특별시 강남구 광평로60길 22","서울특별시 강남구 수서동 721","37.48698084","127.106951","1층 외부","09:00","18:00","09:00","18:00","00:00","00:00","1","N","N","강남세움복지관","02-2184-8700","2021-09-29","3220000","2022-02-14 14:37:29.0"
"남현동주민센터","서울특별시","관악구","11620","서울특별시 관악구 남현동 남현1가길 29 남현동복합청사","서울특별시 관악구 남현동 1086-1","37.474688","126.977868","2층 복지상담실","09:00","18:00","09:00","18:00","09:00","18:00","2","Y","N","남현동주민센터","02-879-4471","2021-09-24","3200000","2022-02-14 14:37:29.0"
"신림동주민센터","서울특별시","관악구","11620","서울특별시 관악구 신림동 신림동길 14 신림동주민센터","서울특별시 관악구 신림동 1439-3","37.487355","126.927102","1층 사회복지팀  접수대 유리창 아래","09:00","18:00","09:00","18:00","09:00","18:00","2","Y","N","신림동주민센터","02-879-4501","2021-09-24","3200000","2022-02-14 14:37:29.0"
"신사동주민센터","서울특별시","관악구","11620","서울특별시 관악구 신림동 조원로 142 신사동 주민센터","서울특별시 관악구 신림동 492-4","37.485410","126.918091","1층 민원실 내 입구","09:00","18:00","09:00","18:00","09:00","18:00","2","Y","N","신사동주민센터","02-879-4531","2021-09-24","3200000","2022-02-14 14:37:29.0"
"조원동 주민센터","서울특별시","관악구","11620","서울특별시 관악구 신림동 조원로12길 25 조원동주민센터","서울특별시 관악구 신림동 568-27","37.482523","126.907783","1층 사무실 내 상담실 옆","09:00","18:00","09:00","18:00","09:00","18:00","2","Y","N","조원동 주민센터","02-879-4566","2021-09-24","3200000","2022-02-14 14:37:29.0"
"미성동 주민센터","서울특별시","관악구","11620","서울특별시 관악구 신림동 난곡로 249 미성동 주민센터","서울특별시 관악구 신림동 763-9","37.476136","126.915541","1층 출입구 옆","09:00","18:00","09:00","18:00","09:00","18:00","2","Y","N","미성동 주민센터","02-879-4591","2021-09-24","3200000","2022-02-14 14:37:29.0"
"난곡동 주민센터","서울특별시","관악구","11620","서울특별시 관악구 난곡로30길 40","서울특별시 관악구 신림동 633-56","37.471022","126.921647","1층 민원실","09:00","18:00","09:00","18:00","09:00","18:00","2","Y","N","난곡동 주민센터","02-879-4621","2021-09-24","3200000","2022-02-14 14:37:29.0"
"난향동주민센터","서울특별시","관악구","11620","서울특별시 관악구 신림동 난곡로 67 난향동주민센터","서울특별시 관악구 신림동 1735-5","37.461520","126.918785","1층 출입구 우측","09:00","18:00","09:00","18:00","09:00","18:00","2","Y","N","난향동주민센터","02-879-4651","2021-09-24","3200000","2022-02-14 14:37:29.0"
"서원동주민센터","서울특별시","관악구","11620","서울특별시 관악구 신림로 282","서울특별시 관악구 신림동 1641-65","37.479732","126.931365","1층 사무실 출입구 오른쪽 하단 설치","09:00","18:00","09:00","18:00","09:00","18:00","2","Y","N","서원동주민센터","02-879-4681","2021-09-24","3200000","2022-02-14 14:37:29.0"
"서림동 주민센터","서울특별시","관악구","11620","서울특별시 관악구 신림동 신림로29길 6 서림동주민센터","서울특별시 관악구 신림동 1694-7","37.474956","126.934990","1층 출입구 좌측","09:00","18:00","09:00","18:00","09:00","18:00","2","Y","N","서림동 주민센터","02-879-4741","2021-09-24","3200000","2022-02-14 14:37:29.0"
"삼성동주민센터","서울특별시","관악구","11620","서울특별시 관악구 신림동 호암로 589 삼성동주민센터","서울특별시 관악구 신림동 1528","37.470106","126.932951","1층 복지상담실 옆","09:00","18:00","09:00","18:00","09:00","18:00","2","Y","N","삼성동주민센터","02-879-4771","2021-09-24","3200000","2022-02-14 14:37:29.0"
"대학동 주민센터","서울특별시","관악구","11620","서울특별시 관악구 신림로 111","서울특별시 관악구 신림동 1516","37.470558","126.936943","1층 출입구","09:00","18:00","09:00","18:00","09:00","18:00","2","Y","N","대학동 주민센터","02-879-4801","2021-09-24","3200000","2022-02-14 14:37:29.0"
"신림종합사회복지관","서울특별시","관악구","11620","서울특별시 관악구 난곡로110","서울특별시 관악구 신림동 664","37.464836","126.919828","1층 출입구","09:00","18:00","09:00","18:00","09:00","18:00","2","Y","N","신림종합사회복지관","02-851-1767","2021-09-24","3200000","2022-02-14 14:37:29.0"
"보훈회관","서울특별시","관악구","11620","서울특별시 관악구 신림동 남부순환로 1427 관악구 보훈회관","서울특별시 관악구 신림동 564-4","37.481166","126.909375","1층 출입구 옆","09:00","18:00","09:00","18:00","09:00","18:00","2","Y","N","보훈회관","070-7039-3265","2021-09-24","3200000","2022-02-14 14:37:29.0"
"한울림장애인자립생활센터","서울특별시","관악구","11620","서울특별시 관악구 남부순환로 1692 태광빌딩","서울특별시 관악구 봉천동 947-7","37.483592","126.938176","4층","09:00","18:00","09:00","18:00","09:00","18:00","2","Y","N","한울림장애인자립생활센터","02-878-2031","2021-09-24","3200000","2022-02-14 14:37:29.0"
"서울대학교","서울특별시","관악구","11620","서울특별시 관악구 신림동 관악로 1 삼성컨벤션센타","서울특별시 관악구 봉천동 산 4-1","37.468002","126.959294","관정관 2층","09:00","18:00","09:00","18:00","09:00","18:00","2","Y","N","서울대학교","02-880-5114","2021-09-24","3200000","2022-02-14 14:37:29.0"
"서울새롬학교","서울특별시","관악구","11620","서울특별시 관악구 봉천동 보라매로 44 삼육외래센터 SRC서울센터(새롬학교)","서울특별시 관악구 봉천동 722-19","37.493192","126.927372","4층 별관","09:00","18:00","09:00","18:00","09:00","18:00","2","Y","N","서울새롬학교","02-840-3535","2021-09-24","3200000","2022-02-14 14:37:29.0"
"하상장애인복지관","서울특별시","강남구","11680","서울특별시 강남구 개포로 613","서울특별시 강남구 개포동 12-5","37.4925543","127.0751338","복지관 1층 외부","00:00","24:00","00:00","24:00","00:00","24:00","2","N","Y","하상장애인복지관","02-451-6000","2021-09-29","3220000","2022-02-14 14:37:29.0"
"강남장애인복지관","서울특별시","강남구","11680","서울특별시 강남구 개포로 605","서울특별시 강남구 개포동 12-10","37.491954","127.0734687","장애인복지관5층","09:00","18:00","09:00","14:00","00:00","00:00","2","N","Y","강남장애인복지관","02-445-8006","2021-09-29","3220000","2022-02-14 14:37:29.0"
"충현복지관","서울특별시","강남구","11680","서울특별시 강남구 논현로98길 16","서울특별시 강남구 역삼동 669-3","37.503611","127.036971","충현복지관 입구","09:00","18:00","00:00","00:00","00:00","00:00","2","N","Y","충현복지관","02-2192-0600","2021-09-29","3220000","2022-02-14 14:37:29.0"
"수서동주민센터","서울특별시","강남구","11680","서울특별시 강남구 광평로 301-4","서울특별시 강남구 수서동 718-2","37.48890229","127.104955","주민센터 민원실","09:00","18:00","00:00","00:00","00:00","00:00","2","Y","N","수서동주민센터","02-3423-8598","2021-09-29","3220000","2022-02-14 14:37:29.0"
"일원1동주민센터","서울특별시","강남구","11680","서울특별시 강남구 양재대로55길 14","서울특별시 강남구 일원동 712-3","37.491809","127.0880284","주민센터 민원실","09:00","18:00","00:00","00:00","00:00","00:00","2","N","N","일원1동주민센터","02-3423-8395","2021-09-29","3220000","2022-02-14 14:37:29.0"
"역삼1동주민센터","서울특별시","강남구","11680","서울특별시 강남구 역삼로7길 16","서울특별시 강남구 역삼동 829-20","37.495369","127.0332825","역삼1동 문화센터 1층","06:00","22:00","06:00","22:00","00:00","00:00","2","N","N","역삼1동주민센터","02-3423-8644","2021-09-29","3220000","2022-02-14 14:37:29.0"
"역삼2동주민센터","서울특별시","강남구","11680","서울특별시 강남구 도곡로43길 25","서울특별시 강남구 역삼동 761-26","37.495974","127.046801","주민센터 민원실","09:00","18:00","00:00","00:00","00:00","00:00","2","N","N","역삼2동주민센터","02-3423-7394","2021-09-29","3220000","2022-02-14 14:37:29.0"
"세곡동주민센터","서울특별시","강남구","11680","서울특별시 강남구 밤고개로 286","서울특별시 강남구 율현동 278-1","37.46904954","127.106923","세곡동 문화센터1층","09:00","18:00","09:00","18:00","09:00","18:00","2","N","N","세곡동주민센터","02-3423-8698","2021-09-29","3220000","2022-02-14 14:37:29.0"
"관악구종합청사","서울특별시","관악구","11620","서울특별시 관악구 봉천동 관악로 145 관악구청 1동","서울특별시 관악구 봉천동 1570-1","37.478210","126.951503","1층 로비","09:00","18:00","09:00","18:00","09:00","18:00","2","Y","N","관악구청 행정지원과","02-879-5192","2021-09-24","3200000","2022-02-14 14:37:29.0"
"장애인종합복지관","서울특별시","관악구","11620","서울특별시 관악구 봉천동 남부순환로 1914 관악구장애인종합복지관","서울특별시 관악구 봉천동 1660-4","37.477439","126.961852","1층 지상주차장 8층 장애인단체연합회 사무실 앞","09:00","18:00","09:00","18:00","09:00","18:00","2","Y","Y","관악구장애인종합복지관","02-877-0750","2021-09-24","3200000","2022-02-14 14:37:29.0"
"관악산 무장애숲길","서울특별시","관악구","11620","-","서울특별시 관악구 신림동 산 56-2","37.4555997342","126.945751","무장애숲길 관리사무소 앞","09:00","18:00","09:00","18:00","09:00","18:00","2","Y","N","무장애숲길 관리사무소","02-879-6521","2021-09-24","3200000","2022-02-14 14:37:29.0"
"관악구보건소","서울특별시","관악구","11620","서울특별시 관악구 봉천동 관악로 145 관악보건소 2동","서울특별시 관악구 봉천동 1570-1","37.478211","126.951501","1층 민원실","09:00","18:00","09:00","18:00","09:00","18:00","2","Y","N","관악구 보건소","02-879-7106","2021-09-24","3200000","2022-02-14 14:37:29.0"
"관악구민체육센터","서울특별시","관악구","11620","서울특별시 관악구 봉천동 낙성대로3길 37 관악구민종합체육센터","서울특별시 관악구 봉천동 225","37.473067","126.960315","1층 로비","09:00","18:00","09:00","18:00","09:00","18:00","2","Y","Y","관악구민체육센터","02-870-7625","2021-09-24","3200000","2022-02-14 14:37:29.0"
"보라매동 주민센터","서울특별시","관악구","11620","서울특별시 관악구 봉천동 봉천로 279-8 보라매동 주민센터","서울특별시 관악구 봉천동 661","37.488130","126.932773","1층 출입구","09:00","18:00","09:00","18:00","09:00","18:00","2","Y","N","보라매동 주민센터","02-879-4201","2021-09-24","3200000","2022-02-14 14:37:29.0"
"은천동 주민센터","서울특별시","관악구","11620","서울특별시 관악구 봉천동 봉천로33나길 30 은천동 복합청사","서울특별시 관악구 봉천동 905-29","37.485306","126.942408","지하1층 식당","09:00","18:00","09:00","18:00","09:00","18:00","2","Y","N","은천동 주민센터","02-879-4231","2021-09-24","3200000","2022-02-14 14:37:29.0"
"성현동 주민센터","서울특별시","관악구","11620","서울특별시 관악구 봉천동 구암길 38 성현동 주민센터","서울특별시 관악구 봉천동 1712-9","37.489529","126.948147","1층 민원실 출입구 옆","09:00","18:00","09:00","18:00","09:00","18:00","2","Y","N","성현동 주민센터","02-879-4261","2021-09-24","3200000","2022-02-14 14:37:29.0"
"중앙동주민센터","서울특별시","관악구","11620","서울특별시 관악구 양녕로6다길 7","서울특별시 관악구 봉천동 1512-7","37.484152","126.949728","지하 1층 입구 내 좌측","09:00","18:00","09:00","18:00","09:00","18:00","2","Y","N","중앙동주민센터","02-879-4317","2021-09-24","3200000","2022-02-14 14:37:29.0"
"청림동주민센터","서울특별시","관악구","11620","서울특별시 관악구 봉천동 관악로40길 39 청림동 주민센터","서울특별시 관악구 봉천동 1000","37.492717","126.958219","2층 민원실 입구","09:00","18:00","09:00","18:00","09:00","18:00","2","Y","N","청림동주민센터","02-879-4321","2021-09-24","3200000","2022-02-14 14:37:29.0"
"행운동주민센터","서울특별시","관악구","11620","서울특별시 관악구 행운1길 43","서울특별시 관악구 봉천동 1670-7","37.480605","126.957016","지하1층 주차장 옆","09:00","18:00","09:00","18:00","09:00","18:00","2","Y","N","행운동주민센터","02-879-4351","2021-09-24","3200000","2022-02-14 14:37:29.0"
"청룡동 주민센터","서울특별시","관악구","11620","서울특별시 관악구 쑥고개로 44","서울특별시 관악구 봉천동 1539-1","37.479117","126.941634","주민센터 내 복도(청룡동 안내판 아래)","09:00","18:00","09:00","18:00","09:00","18:00","2","Y","N","청룡동 주민센터","02-879-4381","2021-09-24","3200000","2022-02-14 14:37:29.0"
"낙성대동 주민센터","서울특별시","관악구","11620","서울특별시 관악구 낙성대로4가길 5","서울특별시 관악구 봉천동 1624-24","37.476257","126.958376","1층 출입구","09:00","18:00","09:00","18:00","09:00","18:00","2","Y","N","낙성대동 주민센터","02-879-4411","2021-09-24","3200000","2022-02-14 14:37:29.0"
"인헌동주민센터","서울특별시","관악구","11620","서울특별시 관악구 남부순환로246가길 20","서울특별시 관악구 봉천동 1635-40","37.475099","126.965325","1층 복도","09:00","18:00","09:00","18:00","09:00","18:00","2","Y","N","인헌동주민센터","02-879-4447","2021-09-24","3200000","2022-02-14 14:37:29.0"
"구로구청","서울특별시","구로구","11530","서울특별시 구로구 가마산로 245","서울특별시 구로구 구로동 435","37.49551123","126.8882891","구로구청 본관 1층","09:00","18:00","09:00","18:00","09:00","18:00","2","N","Y","서울특별시 구로구청","02-860-2374","2022-01-01","3160000","2022-02-14 14:37:29.0"
"구로구민체육센터","서울특별시","구로구","11530","서울특별시 구로구 고척로45길 39","서울특별시 구로구 고척동 산9-14","37.50658242","126.8532783","구로구민체육센터 1층","06:00","22:00","06:00","19:00","00:00","00:00","2","Y","N","서울특별시 구로구청","02-860-2374","2022-01-01","3160000","2022-02-14 14:37:29.0"
"구로구시설관리공단","서울특별시","구로구","11530","서울특별시 구로구 구로동로26길 54","서울특별시 구로구 구로동 741-27","37.48987838","126.8865593","구로구시설관리공단 1층","06:00","23:00","06:00","23:00","06:00","23:00","2","Y","N","서울특별시 구로구청","02-860-2374","2022-01-01","3160000","2022-02-14 14:37:29.0"
"구로구민회관","서울특별시","구로구","11530","서울특별시 구로구 가마산로25길 21","서울특별시 구로구 구로동 102","37.49710368","126.8895474","구로구민회관 1층","09:00","18:00","09:00","18:00","00:00","00:00","2","Y","N","서울특별시 구로구청","02-860-2374","2022-01-01","3160000","2022-02-14 14:37:29.0"
"성프란치스꼬장애인종합복지관","서울특별시","구로구","11530","서울특별시 구로구 남부순환로105라길 25-10","서울특별시 구로구 가리봉동 131-1","37.48180209","126.8905627","성프란치스꼬장애인종합복지관 1층","09:00","18:00","00:00","00:00","00:00","00:00","2","N","Y","서울특별시 구로구청","02-860-2374","2022-01-01","3160000","2022-02-14 14:37:29.0"
"구로구보건소","서울특별시","구로구","11530","서울특별시 구로구 구로중앙로28길 66","서울특별시 구로구 구로동 109-4","37.50010203","126.8893394","보건소 2층","09:00","18:00","00:00","00:00","00:00","00:00","2","Y","N","서울특별시 구로구청","02-860-2374","2022-01-01","3160000","2022-02-14 14:37:29.0"
"신도림역","서울특별시","구로구","11530","서울특별시 구로구 새말로 지하 117-21","서울특별시 구로구 신도림동 460-26","37.50877132","126.891082","신도림역 2호선","06:00","23:00","06:00","23:00","06:00","23:00","2","N","N","서울특별시 구로구청","02-860-2374","2022-01-01","3160000","2022-02-14 14:37:29.0"
"솔밭근린공원","서울특별시","강북구","11305","서울시 강북구 삼양로 561","서울특별시 강북구 우이동 80","37.65301233","127.0122523","관리소 안심택배함 옆","00:00","24:00","00:00","24:00","00:00","24:00","2","Y","Y","강북구청","02-901-6677","2021-10-08","3080000","2022-02-14 14:37:29.0"
"서울대학교","서울특별시","관악구","11620","서울특별시 관악구 관악로1","서울특별시 관악구 신림동 산56-1","37.46803851","126.959296","중앙도서관 관정관 2층 사물함 옆","07:00","23:00","07:00","23:00","07:00","23:00","2","N","Y","서울대학교","02-880-8787","2020-06-05","6110000","2022-02-14 14:37:29.0"
"강북구청","서울특별시","강북구","11305","서울특별시 강북구 도봉로89길 13","서울특별시 강북구 수유동 192-59","37.63918553","127.0254518","행정청사","09:00","18:00","00:00","00:00","00:00","00:00","2","N","Y","강북구청","02-901-6316","2020-06-05","6110000","2022-02-14 14:37:29.0"
"삼육대학교","서울특별시","노원구","11350","서울특별시 노원구 화랑로 815","서울특별시 노원구 공릉동 26-106","37.64335827","127.1088514","대학교","09:00","18:00","00:00","00:00","00:00","00:00","2","N","Y","삼육대학교","02-3397-3238","2020-06-05","6110000","2022-02-14 14:37:29.0"
"이화여자대학교","서울특별시","서대문구","11410","서울특별시 서대문구 이화여대길 52","서울특별시 서대문구 대현동 11-1","37.56446407","126.9502883","이화여자대학교 학생문화관 1층","09:00","18:00","00:00","00:00","00:00","00:00","2","N","Y","이화여자대학교","02-3277-2184","2020-06-05","6110000","2022-02-14 14:37:29.0"
"경희대학교","서울특별시","동대문구","11230","서울특별시 동대문구 경희대로 26","서울특별시 동대문구 회기동 1-5","37.5939495","127.0548902","청운관 1층 장애학생지원센터","09:00","18:00","00:00","00:00","00:00","00:00","2","N","Y","경희대학교","02-961-2104","2020-06-05","6110000","2022-02-14 14:37:29.0"
"성북장애인복지관","서울특별시","성북구","11290","서울특별시 성북구 화랑로130","서울특별시 성북구 하월곡동 11-11","37.60459952","127.0457204","복지관 (지하1층 1층 입구 4층)","09:00","18:00","00:00","00:00","00:00","00:00","4","N","Y","성북장애인복지관","02-915-9200","2020-06-05","6110000","2022-02-14 14:37:29.0"
"동대문구청","서울특별시","동대문구","11230","서울특별시 동대문구 천호대로 145","서울특별시 동대문구 용두동 39-9","37.57439316","127.0398969","행정청사","09:00","18:00","00:00","00:00","00:00","00:00","2","N","Y","동대문구청","02-2127-4260","2020-06-05","6110000","2022-02-14 14:37:29.0"
"사람사랑양천장애인생활자립센터","서울특별시","양천구","11470","서울특별시 양천구 신정로 267","서울특별시 양천구 신정동 1254","37.51221943","126.8506703","IL센터(양천벤처타운 603호 열린마당)","09:00","18:00","00:00","00:00","00:00","00:00","2","N","Y","사람사랑양천장애인생활자립센터","02-2608-2979","2020-06-05","6110000","2022-02-14 14:37:29.0"
"가온장애인자립생활센터","서울특별시","마포구","11440","서울특별시 마포구 만리재로 14","서울특별시 마포구 공덕동 456","37.54399444","126.9528366","IL센터(2001호)","09:00","18:00","00:00","00:00","00:00","00:00","2","N","Y","가온장애인자립생활센터","070-8247-0733","2020-06-05","6110000","2022-02-14 14:37:29.0"
"사람희망 금천장애인자립생활센터","서울특별시","금천구","11545","서울특별시 금천구 두산로 70","서울특별시 금천구 독산동 291-1","37.46892203","126.8956206571","IL센터(현대지식산업센터 630호)","09:00","18:00","00:00","00:00","00:00","00:00","2","N","Y","사람희망 금천장애인자립생활센터","070-4035-4344","2020-06-05","6110000","2022-02-14 14:37:29.0"
"서대문햇살아래장애인자립생활센터","서울특별시","서대문구","11410","서울특별시 서대문구 통일로34길 28-6","서울특별시 서대문구 홍제동 105-80","37.58558663","126.9494545","서대문햇살아래보장구수리센터 1층 입구","09:00","18:00","00:00","00:00","00:00","00:00","2","N","Y","서대문햇살아래장애인자립생활센터","02-720-6698","2020-06-05","6110000","2022-02-14 14:37:29.0"
"은평늘봄장애인자립생활센터","서울특별시","은평구","11380","서울특별시 은평구 불광로 7","서울특별시 은평구 대조동 25-6","37.6094728373","126.927181","IL센터 프로그램실(은평메디컬센터 3층)","09:00","18:00","00:00","00:00","00:00","00:00","2","N","Y","은평늘봄장애인자립생활센터","02-354-1724","2020-06-05","6110000","2022-02-14 14:37:29.0"
"장애여성독립생활센터[숨]","서울특별시","강동구","11740","서울특별시 강동구 올림픽로 664","서울특별시 강동구 천호동 425-5","37.54055718","127.1249773","IL센터(대우베네시티상가 101동 408호)","09:00","18:00","00:00","00:00","00:00","00:00","2","N","Y","장애여성독립생활센터[숨]","02-441-2384","2020-06-05","6110000","2022-02-14 14:37:29.0"
"한울림장애인자립생활센터","서울특별시","관악구","11620","서울특별시 관악구 신림로 169","서울특별시 관악구 봉천동 947-7","37.4742366901","126.9337115417","IL센터(태광빌딩 4층) 프로그램실 앞","09:00","18:00","00:00","00:00","00:00","00:00","2","N","Y","한울림장애인자립생활센터","02-878-2031","2020-06-05","6110000","2022-02-14 14:37:29.0"
"강서뇌성마비복지관","서울특별시","강서구","11500","서울특별시 강서구 방화대로 45길 69","서울특별시 강서구 방화동 452-5","37.57420788","126.8125833","복지관(지하2층 휠체어 보관소)","09:00","18:00","00:00","00:00","00:00","00:00","2","N","Y","강서뇌성마비복지관","02-2662-3491","2020-06-05","6110000","2022-02-14 14:37:29.0"
"구립동대문장애인종합복지관","서울특별시","동대문구","11230","서울특별시 동대문구 청계천로 521","서울특별시 동대문구 용두동 255-69","37.57181454","127.0340455","복지관 1층 입구","09:00","18:00","00:00","00:00","00:00","00:00","2","N","Y","구립동대문장애인종합복지관","02-927-0063","2020-06-05","6110000","2022-02-14 14:37:29.0"
"맑은장애인자립생활센터","서울특별시","강서구","11500","서울특별시 강서구 강서로 466","서울특별시 강서구 등촌동 684-2","37.56689803","126.8414244","IL센터(우리벤처타운 201호)","09:00","18:00","00:00","00:00","00:00","00:00","2","N","Y","맑은장애인자립생활센터","02-2605-0420","2020-06-05","6110000","2022-02-14 14:37:29.0"
"연세대학교재활학교","서울특별시","서대문구","11410","서울특별시 서대문구 연세로 50","서울특별시 서대문구 연희동 27","37.5638048150","126.9429316209","지하주차장 1층","08:30","16:30","00:00","00:00","00:00","00:00","2","N","Y","연세대학교재활학교","02-2123-8134","2020-06-05","6110000","2022-02-14 14:37:29.0"
"강북장애인종합복지관","서울특별시","강북구","11305","서울특별시 강북구 오현로 189","서울특별시 강북구 번동 306-12","37.6287592","127.0390695","복지관 후문 주차장","09:00","18:00","00:00","00:00","00:00","00:00","2","N","Y","강북장애인종합복지관","02-989-4214","2020-06-05","6110000","2022-02-14 14:37:29.0"
"삼양동종합복지센터","서울특별시","강북구","11305","서울특별시 강북구 삼양로 47길 9","서울특별시 강북구 미아동 749-25","37.62293303","127.0185409","삼양동종합복지센터 1층 로비","09:00","18:00","00:00","00:00","00:00","00:00","2","N","Y","삼양동종합복지센터","02-945-1305","2020-06-05","6110000","2022-02-14 14:37:29.0"
"강북노인종합복지관","서울특별시","강북구","11305","서울특별시 강북구 삼양로 92길 40","서울특별시 강북구 수유동 122","37.63568736","127.0187526","복지관 1층 입구","09:00","18:00","00:00","00:00","00:00","00:00","2","N","Y","강북노인종합복지관","02-999-9179","2020-06-05","6110000","2022-02-14 14:37:29.0"
"미아동복합청사","서울특별시","강북구","11305","서울특별시 강북구 솔매로49길 14","서울특별시 강북구 미아동 197-1","37.62709036","127.0269747","행정청사","09:00","18:00","00:00","00:00","00:00","00:00","2","N","Y","미아동복합청사","02-901-6316","2020-06-05","6110000","2022-02-14 14:37:29.0"
"관악구민체육센터(관악구시설관리공단)","서울특별시","관악구","11620","서울특별시 관악구 낙성대로3길 37","서울특별시 관악구 봉천동 225","37.47306649","126.9603153","운동시설","09:00","18:00","00:00","00:00","00:00","00:00","2","N","Y","관악구민체육센터(관악구시설관리공단)","02-870-7625","2020-06-05","6110000","2022-02-14 14:37:29.0"
"북가좌제2동 주민센터","서울특별시","서대문구","11410","서울특별시 서대문구 응암로1길 10","서울특별시 서대문구 북가좌동 324-13","37.58149154","126.9111778","행정청사","09:00","18:00","00:00","00:00","00:00","00:00","2","N","Y","북가좌제2동 주민센터","02-330-8141","2020-06-05","6110000","2022-02-14 14:37:29.0"
"구로장애인자립생활센터","서울특별시","구로구","11530","서울특별시 구로구 가마산로27길 14","서울특별시 구로구 구로동 106-8","37.49772931","126.8918534","IL센터 8층 엘리베이터 앞","09:00","18:00","00:00","00:00","00:00","00:00","2","N","Y","구로장애인자립생활센터","02-857-9501","2020-06-05","6110000","2022-02-14 14:37:29.0"
"서강대학교","서울특별시","마포구","11440","서울특별시 마포구 백범로 35","서울특별시 마포구 신수동 1-1","37.55146841","126.943027","대학교(장애학생지원센터BW205호)","09:00","18:00","00:00","00:00","00:00","00:00","2","N","Y","서강대학교","02-705-7800","2020-06-05","6110000","2022-02-14 14:37:29.0"
"나로센터(라피드보호작업장)","서울특별시","영등포구","11560","서울특별시 영등포구 당산로40길16","서울특별시 영등포구 당산동4가 32-176","37.52920347","126.9003926","작업장 7층 입구","09:00","18:00","00:00","00:00","00:00","00:00","2","N","Y","나로센터(라피드보호작업장)","02-2677-8008","2020-06-05","6110000","2022-02-14 14:37:29.0"
"새날동대문장애인자립생활센터","서울특별시","동대문구","11230","서울특별시 동대문구 천호대로 307","서울특별시 동대문구 답십리동 493-5","37.56579891","127.0547608","IL센터(클래식타워 606호)","09:00","18:00","00:00","00:00","00:00","00:00","2","N","Y","새날동대문장애인자립생활센터","02-959-5603","2020-06-05","6110000","2022-02-14 14:37:29.0"
"총신대학교","서울특별시","동작구","11590","서울특별시 동작구 사당로 143","서울특별시 동작구 사당동 200-1","37.48792793","126.9667615","총신대학교 종합관 1층 로비 왼편","09:00","18:00","00:00","00:00","00:00","00:00","2","N","Y","총신대학교","02-3479-0543","2020-06-05","6110000","2022-02-14 14:37:29.0"
"성동장애인종합복지관","서울특별시","성동구","11200","서울특별시 성동구 청계천로 506","서울특별시 성동구 마장동 527-2","37.57022175","127.0334425","복지관 1층 주차장쪽 (이동보조기기수리센터)","09:00","18:00","00:00","00:00","00:00","00:00","2","N","Y","성동장애인종합복지관","02-2290-3100","2020-06-05","6110000","2022-02-14 14:37:29.0"
"서울시립영등포장애인복지관","서울특별시","영등포구","11560","서울특별시 영등포구 버드나루로 22","서울특별시 영등포구 영등포동2가 94-379","37.52085927","126.9129013","복지관","09:00","18:00","00:00","00:00","00:00","00:00","2","N","Y","서울시립영등포장애인복지관","02-3667-7979","2020-06-05","6110000","2022-02-14 14:37:29.0"
"도봉장애인자립생활센터","서울특별시","도봉구","11320","서울특별시 도봉구 도봉로 103길 21","서울특별시 도봉구 쌍문동 103-243","37.64491807","127.0309696","IL센터 1층 입구","09:00","18:00","00:00","00:00","00:00","00:00","2","N","Y","도봉장애인자립생활센터","02-993-6300","2020-06-05","6110000","2022-02-14 14:37:29.0"
"성동느티나무장애인자립생활센터","서울특별시","성동구","11200","서울특별시 성동구 성수일로10길 33","서울특별시 성동구 성수동2가 289-27","37.54654316","127.0539592","IL센터 916호 입구 앞","09:00","18:00","00:00","00:00","00:00","00:00","2","N","Y","성동느티나무장애인자립생활센터","02-2296-0551","2020-06-05","6110000","2022-02-14 14:37:29.0"
"서울시립뇌성마비복지관","서울특별시","노원구","11350","서울특별시 노원구 덕릉로 70가길 96","서울특별시 노원구 상계동 771","37.64244348","127.0565801","복지관 지하 서울시동북보조기기센터 내","09:00","18:00","00:00","00:00","00:00","00:00","2","N","Y","서울시립뇌성마비복지관","02-932-4412","2020-06-05","6110000","2022-02-14 14:37:29.0"
"주몽재활원","서울특별시","강동구","11740","서울특별시 강동구 상암로 369","서울특별시 강동구 상일동 179","37.5461974","127.1633749","주몽재활원 3층 캐노피 입구","09:00","18:00","09:00","18:00","09:00","18:00","2","N","Y","주몽재활원","070-8255-0315","2020-06-05","6110000","2022-02-14 14:37:29.0"
"서울시립남부장애인종합복지관","서울특별시","동작구","11590","서울특별시 동작구 여의대방로 20길 33","서울특별시 동작구 신대방동 722","37.4953810628","126.9189142015","복지관 출입시 현관 왼쪽편에 설치","09:00","20:00","00:00","00:00","00:00","00:00","2","N","Y","서울시립남부장애인종합복지관","02-829-7112","2020-06-05","6110000","2022-02-14 14:37:29.0"
"이음장애인자립생활센터","서울특별시","영등포구","11560","서울특별시 영등포구 선유로 146","서울특별시 영등포구 양평동3가 46","37.5268533324","126.891823","IL센터(이앤씨드림타워 1213호 현관 입구에 위치)","09:00","18:00","00:00","00:00","00:00","00:00","2","N","Y","이음장애인자립생활센터","02-6081-5900","2020-06-05","6110000","2022-02-14 14:37:29.0"
"서울장애인자립생활센터","서울특별시","송파구","11710","서울특별시 송파구오금로507","서울특별시 송파구 거여동 37-3","37.49323503","127.1451804","IL센터(가야빌딩 6층)","09:00","18:00","00:00","00:00","00:00","00:00","2","N","Y","서울장애인자립생활센터","02-404-0920","2020-06-05","6110000","2022-02-14 14:37:29.0"
"해오름장애인자립생활센터","서울특별시","영등포구","11560","서울특별시 영등포구 국회대로 62길14","서울특별시 영등포구 여의도동 18-3","37.52670394","126.9164739","IL센터(302호)","09:00","18:00","00:00","00:00","00:00","00:00","2","N","Y","해오름장애인자립생활센터","02-786-8500","2020-06-05","6110000","2022-02-14 14:37:29.0"
"도봉노적성해장애인자립생활센터","서울특별시","도봉구","11320","서울특별시 도봉구 도봉로 164길 33-25","서울특별시 도봉구 도봉동 626-16","37.67648669","127.0471928","IL센터(3층 304호 교육실 내부)","09:00","18:00","00:00","00:00","00:00","00:00","2","N","Y","도봉노적성해장애인자립생활센터","02-455-2887","2020-06-05","6110000","2022-02-14 14:37:29.0"
"연세대학교","서울특별시","서대문구","11410","서울특별시 서대문구 연세로 50","서울특별시 서대문구 신촌동 134","37.56380482","126.9429316","학생회관B11-18호(장애인권위원회실)","09:00","18:00","00:00","00:00","00:00","00:00","2","N","Y","연세대학교","02-2123-3633","2020-06-05","6110000","2022-02-14 14:37:29.0"
"서울새롬학교","서울특별시","관악구","11620","서울특별시 관악구 보라매로 44","서울특별시 관악구 봉천동 722-19","37.49316856","126.9273714","서울새롬학교 4층 복도","09:00","18:00","00:00","00:00","00:00","00:00","2","N","Y","서울새롬학교","02-840-3535","2020-06-05","6110000","2022-02-14 14:37:29.0"
"구로조은장애인자립생활센터","서울특별시","구로구","11530","서울특별시 구로구 디지털로 31길 38-21","서울특별시 구로구 구로동 197-33","37.48652247","126.8937149","IL센터(203호) 입구 오른쪽에 배치","09:00","18:00","00:00","00:00","00:00","00:00","2","N","Y","구로조은장애인자립생활센터","02-2616-3391","2020-06-05","6110000","2022-02-14 14:37:29.0"
"마포장애인종합복지관","서울특별시","마포구","11440","서울특별시 마포구 성산로 128","서울특별시 마포구 성산동 275-3","37.5637954434","126.9082018741","복지관정문","09:00","18:00","09:00","13:00","00:00","00:00","2","N","Y","마포장애인종합복지관","070-7458-3212","2020-06-05","6110000","2022-02-14 14:37:29.0"
"홀트강동복지관","서울특별시","강동구","11740","서울특별시 강동구 아리수로93길41","서울특별시 강동구 강일동 665-3","37.56621785","127.1732707","복지관 1층 출입문쪽 복도","09:00","18:00","00:00","00:00","00:00","00:00","2","N","Y","홀트강동복지관","02-2251-6103","2020-06-05","6110000","2022-02-14 14:37:29.0"
"강남장애인복지관","서울특별시","강남구","11680","서울특별시 강남구 개포로605","서울특별시 강남구 개포동 12-10","37.49198231","127.0734687","복지관 5층","09:00","18:00","00:00","00:00","00:00","00:00","2","N","Y","강남장애인복지관","02-445-8006","2020-06-05","6110000","2022-02-14 14:37:29.0"
"왕십리도선동주민센터","서울특별시","성동구","11200","서울특별시 성동구 마장로 141","","37.5678739340","127.0255270951","1층 정문 외부","09:00","18:00","00:00","00:00","00:00","00:00","1","N","Y","서울특별시 성동구","02-2286-5430","2021-09-30","3030000","2022-02-14 14:37:29.0"
"금호2-3가동주민센터","서울특별시","성동구","11200","서울특별시 성동구 무수막18길 1","","37.5532390598","127.0209110953","1층 정문 외부","06:00","22:00","00:00","00:00","00:00","00:00","1","N","Y","서울특별시 성동구","02-2286-5430","2021-09-30","3030000","2022-02-14 14:37:29.0"
"독서당인문아카데미센터","서울특별시","성동구","11200","서울특별시 성동구 금호로 30","","37.5461598550","127.0253043467","1층 출입구","09:00","21:00","09:00","21:00","00:00","00:00","1","N","Y","서울특별시 성동구","02-2286-5430","2021-09-30","3030000","2022-02-14 14:37:29.0"
"서울숲공원 관리사무소","서울특별시","성동구","11200","서울특별시 성동구 뚝섬로 273","","37.5430702368","127.0417993255","관리사무소 1층","00:00","24:00","00:00","24:00","00:00","24:00","1","N","Y","서울특별시 성동구","02-2286-5430","2021-09-30","3030000","2022-02-14 14:37:29.0"
"서울숲공원 커뮤니티센터","서울특별시","성동구","11200","서울특별시 성동구 뚝섬로 273","","37.5430702368","127.0417993255","커뮤니티센터 1층","00:00","24:00","00:00","24:00","00:00","24:00","1","N","Y","서울특별시 성동구","02-2286-5430","2021-09-30","3030000","2022-02-14 14:37:29.0"
"성수이마트","서울특별시","성동구","11200","서울특별시 성동구 뚝섬로 379","","37.5399389","127.0534927452","5층 소아과 옆","10:00","23:00","10:00","23:00","10:00","23:00","1","N","N","서울특별시 성동구","02-2286-5430","2021-09-30","3030000","2022-02-14 14:37:29.0"
"마장동주민센터","서울특별시","성동구","11200","서울특별시 성동구 마장로42길 11","","37.5663182489","127.0454072202","입구계단 옆","09:00","18:00","00:00","00:00","00:00","00:00","1","N","N","서울특별시 성동구","02-2286-5430","2021-09-30","3030000","2022-02-14 14:37:29.0"
"성수2가1동주민센터","서울특별시","성동구","11200","서울특별시 성동구 뚝섬로 385-19","","37.5395041","127.0540114","주민센터지하","09:00","18:00","00:00","00:00","00:00","00:00","1","N","N","서울특별시 성동구","02-2286-5430","2021-09-30","3030000","2022-02-14 14:37:29.0"
"상왕십리역","서울특별시","성동구","11200","서울특별시 성동구 왕십리로 지하 374","","37.5644673598","127.0290302021","1-1번 출구 셔텨앞","05:00","23:00","05:00","23:00","05:00","23:00","1","N","Y","서울특별시 성동구","02-2286-5430","2021-09-30","3030000","2022-02-14 14:37:29.0"
"마장역","서울특별시","성동구","11200","서울특별시 성동구 마장로 296","","37.5657029568","127.0427582274","B2층 대합실 화장실 위생자판기옆","05:00","23:00","05:00","23:00","05:00","23:00","1","N","Y","서울특별시 성동구","02-2286-5430","2021-09-30","3030000","2022-02-14 14:37:29.0"
"신금호역","서울특별시","성동구","11200","서울특별시 성동구 금호로 150-1","","37.5544212441","127.0204207207","B1층 편의점 옆","05:00","23:00","05:00","23:00","05:00","23:00","1","N","Y","서울특별시 성동구","02-2286-5430","2021-09-30","3030000","2022-02-14 14:37:29.0"
"성동구청","서울특별시","성동구","11200","서울특별시 성동구 고산자로 270","","37.5634235900","127.0369663587","성동구청1층","09:00","21:00","09:00","21:00","09:00","21:00","1","N","N","서울특별시 성동구","02-2286-5430","2021-09-30","3030000","2022-02-14 14:37:29.0"
"성동구보건소","서울특별시","성동구","11200","서울특별시 성동구 마장로23길 10","","37.5670791452","127.0332147532","보건소후문 자전거보관소옆","09:00","18:00","00:00","00:00","00:00","00:00","1","N","N","서울특별시 성동구","02-2286-5430","2021-09-30","3030000","2022-02-14 14:37:29.0"
"장애인생활회관","서울특별시","성동구","11200","서울특별시 성동구 청계천로 516","","37.5707297100","127.0341581690","1층 정문옆","09:00","17:30","00:00","00:00","00:00","00:00","1","N","N","서울특별시 성동구","02-2286-5430","2021-09-30","3030000","2022-02-14 14:37:29.0"
"성동장애인종합복지관","서울특별시","성동구","11200","서울특별시 성동구 청계천로 506","","37.5702217535","127.0334425401","복지관1층바깥","09:00","17:30","00:00","00:00","00:00","00:00","1","N","N","서울특별시 성동구","02-2286-5430","2021-09-30","3030000","2022-02-14 14:37:29.0"
"성동재활의원","서울특별시","성동구","11200","서울특별시 성동구 뚝섬로1길 43 성수문화복지회관","","37.5453890","127.0470880","입구 오른편 데스크쪽","09:00","18:00","00:00","00:00","00:00","00:00","1","N","N","서울특별시 성동구","02-2286-5430","2021-09-30","3030000","2022-02-14 14:37:29.0"
"왕십리역","서울특별시","성동구","11200","서울특별시 성동구 왕십리로 지상 2층","","37.5612680","127.0380040","중앙선 출입구 옆","05:00","23:00","05:00","23:00","05:00","23:00","1","N","N","서울특별시 성동구","02-2286-5430","2021-09-30","3030000","2022-02-14 14:37:29.0"
"전동휠체어급속충전기","서울특별시","종로구","11110","서울특별시 종로구 종로 55","서울특별시 종로구 관철동 291-2","37.57021449","126.983238","1호선 지하1층 대합실","05:00","00:00","05:00","00:00","05:00","00:00","2","Y","Y","서울특별시 종로구청","02-2148-2564","2021-11-12","3000000","2022-02-14 14:37:29.0"
"전동휠체어급속충전기","서울특별시","종로구","11110","서울특별시 종로구 종로 지하 129","서울특별시 종로구 종로3가 10-5","37.57042804","126.992031","1호선 12번 출구 방향","05:00","00:00","05:00","00:00","05:00","00:00","2","Y","Y","서울특별시 종로구청","02-2148-2564","2021-11-12","3000000","2022-02-14 14:37:29.0"
"전동휠체어급속충전기","서울특별시","종로구","11110","서울특별시 종로구 종로 359","서울특별시 종로구 숭인동 81-39","37.57336617","127.0167339","1호선 상선 승강장 2-2지점","05:00","00:00","05:00","00:00","05:00","00:00","2","Y","Y","서울특별시 종로구청","02-2148-2564","2021-11-12","3000000","2022-02-14 14:37:29.0"
"전동휠체어급속충전기","서울특별시","종로구","11110","서울특별시 종로구 율곡로 62","서울특별시 종로구 경운동 95","37.57672001","126.9858221","3호선 지하2층 대합실","05:00","00:00","05:00","00:00","05:00","00:00","2","Y","Y","서울특별시 종로구청","02-2148-2564","2021-11-12","3000000","2022-02-14 14:37:29.0"
"전동휠체어급속충전기","서울특별시","종로구","11110","서울특별시 종로구 대학로 120","서울특별시 종로구 동숭동 67-2","37.5818372","127.0022796","4호선 2번 출구 모래함 옆","05:00","00:00","05:00","00:00","05:00","00:00","2","Y","Y","서울특별시 종로구청","02-2148-2564","2021-11-12","3000000","2022-02-14 14:37:29.0"
"전동휠체어급속충전기","서울특별시","종로구","11110","서울특별시 종로구 율곡로 308","서울특별시 종로구 종로6가 287-1","37.57041351","127.0095447","4호선 8번 출구 방향","05:00","00:00","05:00","00:00","05:00","00:00","2","Y","Y","서울특별시 종로구청","02-2148-2564","2021-11-12","3000000","2022-02-14 14:37:29.0"
"전동휠체어급속충전기","서울특별시","종로구","11110","서울특별시 종로구 세종대로 175","서울특별시 종로구 당주동 11","37.57184786","126.9761683","5호선 8번 출구","05:00","00:00","05:00","00:00","05:00","00:00","2","Y","Y","서울특별시 종로구청","02-2148-2564","2021-11-12","3000000","2022-02-14 14:37:29.0"
"전동휠체어급속충전기","서울특별시","종로구","11110","서울특별시 종로구 삼봉로 43","서울특별시 종로구 수송동 146-2","37.57319787","126.9788134","별관 1층 민원실","09:00","18:00","00:00","00:00","00:00","00:00","2","Y","Y","서울특별시 종로구청","02-2148-2564","2021-11-12","3000000","2022-02-14 14:37:29.0"
"전동휠체어급속충전기","서울특별시","종로구","11110","서울특별시 종로구 자하문로19길 36","서울특별시 종로구 옥인동 45-30","37.58183089","126.9692239","2층 엘리베이터 옆","09:00","18:00","00:00","00:00","00:00","00:00","2","Y","Y","서울특별시 종로구청","02-2148-2564","2021-11-12","3000000","2022-02-14 14:37:29.0"
"전동휠체어급속충전기","서울특별시","종로구","11110","서울특별시 종로구 종로17길 8","서울특별시 종로구 종로2가 39-2","37.57071251","126.9889587","3층","09:00","18:00","00:00","00:00","00:00","00:00","2","Y","Y","서울특별시 종로구청","02-2148-2564","2021-11-12","3000000","2022-02-14 14:37:29.0"
"전동휠체어급속충전기","서울특별시","종로구","11110","서울특별시 종로구 새문안로 55","서울특별시 종로구 신문로2가 2-1","37.57049685","126.9710752","1층 로비","09:00","20:00","09:00","19:00","09:00","19:00","2","Y","Y","서울특별시 종로구청","02-2148-2564","2021-11-12","3000000","2022-02-14 14:37:29.0"
"전동휠체어급속충전기","서울특별시","종로구","11110","서울특별시 종로구 세종대로 172","서울특별시 종로구 세종로 1-68","37.57218478","126.9768169","해치마당 9번출구","05:00","23:59","05:00","23:59","05:00","23:59","2","Y","Y","서울특별시 종로구청","02-2148-2564","2021-11-12","3000000","2022-02-14 14:37:29.0"
"중구청","서울특별시","중구","11140","서울특별시 중구 창경궁로 17","서울특별시 중구 예관동 83-15","37.56412015","126.9980097","중구청 별관1층","09:00","18:00","00:00","00:00","00:00","00:00","1","N","N","중구","02-3396-5374","2021-09-06","3010000","2022-02-14 14:37:29.0"
"보건소","서울특별시","중구","11140","서울특별시 중구 다산로39길 16","서울특별시 중구 무학동 50-5","37.56458574","127.0150951","보건소 1층 엘리베이터옆","09:00","18:00","00:00","00:00","00:00","00:00","1","N","N","중구","02-3396-5374","2021-09-06","3010000","2022-02-14 14:37:29.0"
"구민회관","서울특별시","중구","11140","서울특별시 중구 을지로39길 40","서울특별시 중구 을지로6가 18-14","37.5689855","127.0057956","구민회관 1층 정문 현관옆","09:00","18:00","00:00","00:00","00:00","00:00","1","N","N","중구","02-3396-5374","2021-09-06","3010000","2022-02-14 14:37:29.0"
"충무로역 4호선","서울특별시","중구","11140","서울특별시 중구 퇴계로 지하 199","서울특별시 중구 필동2가 16-2","37.56117214","126.9941108","충무로역 4호선 지하1층","05:30","23:59","05:30","23:59","05:30","23:59","2","N","Y","서울교통공사 충무로역","02-6110-4231","2021-09-06","3010000","2022-02-14 14:37:29.0"
"동대문역사문화공원역 2호선","서울특별시","중구","11140","서울특별시 중구 을지로 281","서울특별시 중구 을지로7가 112-3","37.56801422","127.0109091","동대문역사문화공원역 2호선 지하2층 환승구간","05:30","23:59","05:30","23:59","05:30","23:59","2","N","Y","서울교통공사 동대문역사문화공원역","02-6110-2051","2021-09-06","3010000","2022-02-14 14:37:29.0"
"동대문역사문화공원역 4호선","서울특별시","중구","11140","서울특별시 중구 마른내로 지하 162","서울특별시 중구 광희동1가 235-6","37.56457701","127.0059162","동대문역사문화공원역 4호선 지하2층 환승구간","05:30","23:59","05:30","23:59","05:30","23:59","2","N","Y","서울교통공사 동대문역사문화공원역","02-6110-4221","2021-09-06","3010000","2022-02-14 14:37:29.0"
"중구종합복지센터","서울특별시","중구","11140","서울특별시 중구 퇴계로 460","서울특별시 중구 신당동 160-2","37.56509159","127.0227851","중구종합복지센터  1층 중문","00:00","23:59","00:00","23:59","00:00","23:59","2","N","Y","지체장애인협회 중구지회","02-2237-2471","2021-09-06","3010000","2022-02-14 14:37:29.0"
"신당종합사회복지관","서울특별시","중구","11140","서울특별시 중구 동호로11길 22","서울특별시 중구 신당동 361-18","37.55436136","127.0095231","신당종합사회복지관 1층 안내데스크 옆","09:00","19:00","00:00","00:00","00:00","00:00","2","N","Y","신당종합사회복지관","02-2231-1877","2021-09-06","3010000","2022-02-14 14:37:29.0"
"중림종합사회복지관","서울특별시","중구","11140","서울특별시 중구 서소문로6길 16","서울특별시 중구 중림동 156-176","37.55943026","126.9662595","중림종합사회복지관 1층 안내데스크 앞","08:00","18:00","10:00","18:00","10:00","18:00","2","N","Y","중림종합사회복지관","02-362-3348","2021-09-06","3010000","2022-02-14 14:37:29.0"
"은평구청","서울특별시","은평구","11380","서울특별시 은평구 은평로 195","서울특별시 은평구 녹번동 84","37.6024542200","126.9288212000","은평구의회 1층","09:00","18:00","00:00","00:00","00:00","00:00","2","N","Y","은평구청","02-351-7313","2021-09-01","3110000","2022-02-14 14:37:29.0"
"응암1동 주민센터","서울특별시","은평구","11380","서울특별시 은평구 백련산로 179","서울특별시 은평구 응암동 96-38","37.6006784300","126.9267516000","응암1동주민센터 정문","09:00","18:00","00:00","00:00","00:00","00:00","2","N","N","서울특별시 은평구 응암1동주민센터","02-3159-4676","2021-09-01","3110000","2022-02-14 14:37:29.0"
"수색동 주민센터","서울특별시","은평구","11380","서울특별시 은평구 수색로 280","서울특별시 은평구 수색동 384-12","37.5835150900","126.8936768000","주민센터1층 민원실","09:00","18:00","00:00","00:00","00:00","00:00","2","N","N","수색동주민센터","02-351-5443","2021-09-01","3110000","2022-02-14 14:37:29.0"
"서부장애인종합복지관","서울특별시","은평구","11380","서울특별시 은평구 갈현로11길 30","서울특별시 은평구 구산동 191-1","37.6058721900","126.9068521000","복지관 정문 입구","09:00","18:00","09:00","17:00","00:00","00:00","2","N","N","서부장애인종합복지관","02-351-3982","2021-09-01","3110000","2022-02-14 14:37:29.0"
"은평구 장애인 이동기기 수리센터","서울특별시","은평구","11380","서울특별시 은평구 서오릉로 19","서울특별시 은평구 녹번동 81-27","37.6029119300","126.9256437000","소형.휴대용","09:00","18:00","00:00","00:00","00:00","00:00","1","N","N","은평장애인자립생활센터","02-374-0818","2021-09-01","3110000","2022-02-14 14:37:29.0"
"(사)서울시지체장애인협회 은평구지회","서울특별시","은평구","11380","서울특별시 은평구 가좌로 276-9","서울특별시 은평구 신사동 34-16","37.5938511400","126.9132272000","출입구 오른편","09:00","18:00","00:00","00:00","00:00","00:00","2","N","Y","서울시지체장애인협회 은평구지회","02-376-1703","2021-09-01","3110000","2022-02-14 14:37:29.0"
"증산역","서울특별시","은평구","11380","서울특별시 은평구 증산로 306","서울특별시 은평구 증산동 199-7","37.5842165400","126.9100346000","여직원휴게실 옆 B1층 대합실","00:00","00:00","00:00","00:00","00:00","00:00","2","N","Y","해당기관","02-6311-6171","2021-09-01","3110000","2022-02-14 14:37:29.0"
"새절역","서울특별시","은평구","11380","서울특별시 은평구 증산로 400","서울특별시 은평구 신사동 352-2","37.5918417800","126.9138891000","대합실 아이센터 옆","00:00","00:00","00:00","00:00","00:00","00:00","2","N","Y","해당기관","02-6311-6161","2021-09-01","3110000","2022-02-14 14:37:29.0"
"응암역","서울특별시","은평구","11380","서울특별시 은평구 증산로 477 지하철6호선응암역사","서울특별시 은평구 신사동 22-15","37.5987546500","126.9154879000","B1층 엘리베이터 우측 전실 앞","00:00","00:00","00:00","00:00","00:00","00:00","2","N","Y","해당기관","02-6311-6101","2021-09-01","3110000","2022-02-14 14:37:29.0"
"역촌역","서울특별시","은평구","11380","서울특별시 은평구 서오릉로 63","서울특별시 은평구 녹번동 153-31","37.6060452400","126.9229823000","B1층 4번출구와 엘리베이터2호기 사이","00:00","00:00","00:00","00:00","00:00","00:00","2","N","Y","해당기관","02-6311-6111","2021-09-01","3110000","2022-02-14 14:37:29.0"
"연신내역","서울특별시","은평구","11380","서울특별시 은평구 통일로 849","","37.6189675600","126.9211781000","대합실 공공전화박스 옆","00:00","00:00","00:00","00:00","00:00","00:00","2","N","Y","해당기관","02-6110-3211","2021-09-01","3110000","2022-02-14 14:37:29.0"
"독바위역","서울특별시","은평구","11380","서울특별시 은평구 불광로 129-1","서울특별시 은평구 불광동 13-6","37.6184090100","126.9328282000","B1층 엘리베이터 옆","00:00","00:00","00:00","00:00","00:00","00:00","2","N","Y","해당기관","02-6311-6131","2021-09-01","3110000","2022-02-14 14:37:29.0"
"불광역","서울특별시","은평구","11380","서울특별시 은평구 통일로 723-1","서울특별시 은평구 대조동 13-10","37.6103503300","126.9299735000","고객서비스센터 앞","00:00","00:00","00:00","00:00","00:00","00:00","2","N","Y","해당기관","02-6110-3221","2021-09-01","3110000","2022-02-14 14:37:29.0"
"갈현1동주민센터","서울특별시","은평구","11380","서울특별시 은평구 갈현로 301","","37.6236871300","126.9166872000","1층 주차장 내부","09:00","18:00","00:00","00:00","00:00","00:00","2","N","Y","해당기관","02-351-5092","2021-09-01","3110000","2022-02-14 14:37:29.0"
"불광2동주민센터","서울특별시","은평구","11380","서울특별시 은평구 연서로 41길 16","","37.6264190300","126.9272781000","민원실","09:00","18:00","00:00","00:00","00:00","00:00","2","N","Y","해당기관","02-351-5062","2021-09-01","3110000","2022-02-14 14:37:29.0"
"응암2동주민센터","서울특별시","은평구","11380","서울특별시 은평구 백련산로 100","","37.5945823000","126.9230698000","북카페 내부","09:00","18:00","00:00","00:00","00:00","00:00","2","N","Y","해당기관","02-351-5242","2021-09-01","3110000","2022-02-14 14:37:29.0"
"대조동주민센터","서울특별시","은평구","11380","서울특별시 은평구 연서로20길 24-3","","37.6141487900","126.9208026000","민원실","09:00","18:00","00:00","00:00","00:00","00:00","2","N","Y","해당기관","02-351-5182","2021-09-01","3110000","2022-02-14 14:37:29.0"
"구산동주민센터","서울특별시","은평구","11380","서울특별시 은평구 갈현로17길 10","","37.6117256300","126.9103535000","1층 민원실 외부","09:00","18:00","00:00","00:00","00:00","00:00","2","N","Y","해당기관","02-351-5152","2021-09-01","3110000","2022-02-14 14:37:29.0"
"역촌동주민센터","서울특별시","은평구","11380","서울특별시 은평구 연서로 59","","37.6044012400","126.9151783000","1층 입구","09:00","18:00","00:00","00:00","00:00","00:00","2","N","Y","해당기관","02-351-5302","2021-09-01","3110000","2022-02-14 14:37:29.0"
"은평노인종합복지관","서울특별시","은평구","11380","서울특별시 은평구 연서로 415","","37.6322515300","126.9299824000","1층 입구","09:00","18:00","00:00","00:00","00:00","00:00","2","N","Y","해당기관","02-385-1351","2021-09-01","3110000","2022-02-14 14:37:29.0"
"은평재활원","서울특별시","은평구","11380","서울특별시 은평구 갈현로 11길 30","","37.6056451900","126.9063428000","1층 입구 외부","09:00","18:00","00:00","00:00","00:00","00:00","2","N","Y","해당기관","02-385-2046","2021-09-01","3110000","2022-02-14 14:37:29.0"
"중곡보건지소","서울특별시","광진구","11215","서울특별시 광진구 긴고랑로 110","","37.559373","127.0870892","2층 복도 휴게실","09:00","18:00","00:00","00:00","00:00","00:00","2","Y","Y","서울특별시 광진구","02-450-7097","2022-01-14","3040000","2022-02-14 14:37:29.0"
"건대입구역","서울특별시","광진구","11215","서울특별시 광진구 아차산로 243","","37.54041925","127.0691712","2호선 개찰구 안 화장실 맞은편","06:00","23:00","06:00","23:00","06:00","23:00","2","Y","Y","서울특별시 광진구","02-450-7097","2022-01-14","3040000","2022-02-14 14:37:29.0"
"군자역","서울특별시","광진구","11215","서울특별시 광진구 천호대로 550","","37.55720376","127.0794903","7번출구 지상용 엘리베이터 지하 출입구","06:00","23:00","06:00","23:00","06:00","23:00","2","Y","Y","서울특별시 광진구","02-450-7097","2022-01-14","3040000","2022-02-14 14:37:29.0"
"강동구청","서울특별시","강동구","11740","서울특별시 강동구 성내로25","서울특별시 강동구 성내동 540","37.53016097","127.123769","2청사 입구","09:00","18:00","09:00","18:00","09:00","18:00","2","Y","Y","강동구청","02-3425-5693","2021-08-24","3240000","2022-02-14 14:37:29.0"
"강동구청역","서울특별시","강동구","11740","서울특별시 강동구 올림픽로 지하550","서울특별시 강동구 성내동319","37.53067409","127.1205761","안내데스크 맞은편","09:00","18:00","00:00","00:00","00:00","00:00","2","Y","Y","강동구청","02-6311-8121","2021-08-24","3240000","2022-02-14 14:37:29.0"
"중앙보훈병원역","서울특별시","강동구","11740","서울특별시 강동구 동남로 지하625","서울특별시 강동구 둔촌동 8-1","37.52889572","127.148542","B1층 신호기계실 좌측 벽면","09:00","18:00","00:00","00:00","00:00","00:00","2","Y","Y","강동구청","02-2656-0938","2021-08-24","3240000","2022-02-14 14:37:29.0"
"둔촌역","서울특별시","강동구","11740","서울특별시 강동구 양재대로 지하1369","서울특별시 강동구 둔촌동416","37.52813554","127.1363753","B1층 대합실(하선 승강장 계단위)","09:00","18:00","00:00","00:00","00:00","00:00","2","Y","Y","강동구청","02-6311-5541","2021-08-24","3240000","2022-02-14 14:37:29.0"
"강동구민회관","서울특별시","강동구","11740","서울특별시 강동구 상암로168","서울특별시 강동구 천호동41","37.54573141","127.141226","정문 앞 택배보관소 옆","09:00","18:00","09:00","18:00","09:00","18:00","2","Y","Y","강동구청","02-2045-7751","2021-08-24","3240000","2022-02-14 14:37:29.0"
"강일동주민센터","서울특별시","강동구","11740","서울특별시 강동구 아리수로93길 9-14","서울특별시 강동구 강일동 678","37.56504103","127.1739072","1층 외부현관 왼쪽공간","09:00","18:00","09:00","18:00","09:00","18:00","2","Y","Y","강동구청","02-3425-7423","2021-08-24","3240000","2022-02-14 14:37:29.0"
"고덕2동주민센터","서울특별시","강동구","11740","서울특별시 강동구 아리수로78길 43-12","서울특별시 강동구 고덕동226-4","37.56050657","127.164313","동청사 출입문 옆","09:00","18:00","00:00","00:00","00:00","00:00","2","N","Y","강동구청","02-3425-7573","2021-08-24","3240000","2022-02-14 14:37:29.0"
"강동성심병원","서울특별시","강동구","11740","서울특별시 강동구 성안로150","서울특별시 강동구 길동445","37.53615555","127.1353357","본관 2층","09:00","18:00","00:00","00:00","00:00","00:00","2","N","Y","강동구청","02-2224-2165","2021-08-24","3240000","2022-02-14 14:37:29.0"
"강동장애인보호작업장","서울특별시","강동구","11740","서울특별시 강동구 고덕로100-5","서울특별시 강동구 암사동 452-50","37.55430774","127.136536","본 건물 지하주차장","09:00","18:00","09:00","18:00","09:00","18:00","2","N","Y","강동구청","070-4837-4550","2021-08-24","3240000","2022-02-14 14:37:29.0"
"강동구립 암사도서관","서울특별시","강동구","11740","서울특별시 강동구 고덕로20길 42","서울특별시 강동구 암사동 471-37 암사도서관","37.5528330245","127.1333654732","입구","09:00","10:00","09:00","17:00","09:00","17:00","1","N","N","강동구청","02-429-0476","2021-08-24","3240000","2022-02-14 14:37:29.0"
"행정청사","서울특별시","도봉구","30900","서울특별시 도봉구 방학로3길 117","서울특별시 도봉구 쌍문동 565","37.6579418","127.0388316","도봉구보건소(1층 로비 맞은편)","09:00","18:00","00:00","00:00","00:00","00:00","2","N","N","도봉구 보건소","02-2091-4563","2021-08-13","3090000","2022-02-14 14:37:29.0"
